,id,name,railway,public_transport,station_code,network,internet_access,lat,lon,Station Code,Station Name,District,State,Trains passing through
0,30518283,Vasai Road,station,station,BSR,Mumbai Suburban Railway,no,19.3826676,72.8320245,BSR,Vasai Road,Palghar,Maharashtra,125
1,30518292,Naigaon,station,station,NIG,Mumbai Suburban Railway,no,19.3510925,72.84652290000001,NIG,Naigaon,Thane,Maharashtra,0
2,30518297,Bhayandar,station,station,BYR,Mumbai Suburban Railway,wlan,19.3101847,72.8526988,BYR,Bhayandar,Mumbai Suburban,Maharashtra,0
3,30518361,Kharbhav,station,station,KHBV,IR,no,19.298321,72.98446770000001,KHBV,Kharbao,Thane,Maharashtra,0
4,30519796,Ranjangaon Road,station,station,RNJD,IR,no,18.8781663,74.6067124,RNJD,Ranjangaon Rd,Ahmednagar,Maharashtra,0
5,30520541,Vapi,station,station,VAPI,IR,no,20.373548200000002,72.9084376,VAPI,Vapi,Valsad,Gujarat,171
6,30520640,Palghar,station,station,PLG,Mumbai Suburban Railway,no,19.6978882,72.7718888,PLG,Palghar,Palghar,Maharashtra,34
7,99902837,واہگہ,station,station,,,,31.589944000000003,74.57650720000001,,,,,
8,99903377,Attari,station,station,ATT,IR,no,31.5945497,74.6066213,ATT,Atari,Amritsar,Punjab,6
9,171051476,Doraha,station,station,DOA,IR,no,30.803852300000003,76.0436763,DOA,Doraha,Ludhiana,Punjab,9
10,213017960,Bhivandi Road,station,station,BIRD,IR,no,19.2688735,73.04631210000001,BIRD,Bhiwandi Road,Thane,Maharashtra,34
11,213030669,Dahisar,station,station,DIC,Mumbai Suburban Railway,no,19.249357200000002,72.8596302,DIC,Dahisar,Mumbai Suburban,Maharashtra,0
12,213030714,Santa Cruz,station,station,STC,Mumbai Suburban Railway,no,19.0815223,72.8417565,STC,Santa Cruz,Mumbai Suburban,Maharashtra,0
13,243415752,Sanehwal,station,station,SNL,IR,no,30.8379918,75.97905420000001,SNL,Sanahwal,Ludhiana,Punjab,1
14,243874860,Jassowal,station,station,JSL,IR,no,30.800132,75.8321086,JSL,Jassowal Halt,Ludhiana,Punjab,0
15,246582717,Thane,station,station,TNA,IR,wlan,19.186483000000003,72.9757664,TNA,Thane,Thane,Maharashtra,171
16,248467412,Chennai Chetpet,station,station,MSC,IR,no,13.0743424,80.24242100000001,MSC,Chennai Chetpat,Chennai,Tamil Nadu,0
17,248543525,Bisanattam,station,station,BSM,IR,no,12.842245100000001,78.2498583,BSM,Bisanattam,Kolar,Karnataka,2
18,248543645,Kuppam,station,station,KPN,IR,no,12.74728,78.3403626,KPN,Kuppam,Chittoor,Andhra Pradesh,33
19,248543699,Mulanur,station,station,MAR,IR,no,12.662548000000001,78.4067546,MAR,Mulanur,Chittoor,Andhra Pradesh,4
20,248543770,Patchur,station,station,PU,IR,no,12.586530900000001,78.46973290000001,PU,Patchur,Tirupattur,Tamil Nadu,4
21,249823635,Ramesh Nagar,station,station,,Delhi Metro,,28.652744400000003,77.1316496,,,,,
22,252584508,Anand Vihar,station,station,ANVR,Indian Railways,no,28.649810600000002,77.3144992,ANVR,Anand Vihar,East,Delhi,2
23,252584703,Kalipahari,station,station,KPK,IR,,23.6648496,87.0162555,KPK,Kalipahari,Paschim Bardhaman,West Bengal,0
24,252584717,Dankuni,station,station,DKAE,IR,,22.677960900000002,88.29076260000001,DKAE,Dankuni,Hooghly,West Bengal,1
25,252584722,Sealdah,station,station,SDAH,IR,yes,22.567966100000003,88.3711047,SDAH,Kolkata Sealdah,Howrah,West Bengal,54
26,253454039,Bengaluru East,station,station,BNCE,IR,no,13.0011462,77.6183453,BNCE,Bangalore East,Bangalore,Karnataka,20
27,256777901,Kanchipuram,station,station,CJ,IR,no,12.8483107,79.705073,CJ,Kanchipuram,Kanchipuram,Tamil Nadu,4
28,261716087,Walajabad,station,station,WJ,IR,no,12.796826500000002,79.8185833,WJ,Walajabad,Kanchipuram,Tamil Nadu,0
29,261716103,Kanchipuram East,station,station,CJE,IR,no,12.8408612,79.7121979,CJE,Kanchipuram East,Kanchipuram,Tamil Nadu,0
30,262308384,Pattabiram Military Siding,station,station,PTMS,IR,no,13.1373759,80.0601177,PTMS,Pattabiram Military,Thiruvallur,Tamil Nadu,0
31,257720799,Hoshiarpur,station,station,HSX,IR,no,31.5243314,75.90599590000001,HSX,Hoshiarpur,Hoshiarpur,Punjab,2
32,267158149,Tirumalpur,station,station,TMLP,IR,wlan,12.956566800000001,79.67376270000001,TMLP,Tirumalpur,Kanchipuram,Tamil Nadu,0
33,268217229,Patel Nagar,station,station,,Delhi Metro,,28.645012700000002,77.1692817,,,,,
34,268381455,Rithala,station,station,,Delhi Metro,,28.7208064,77.10718130000001,,,,,
35,268381457,Pratap Nagar,station,station,,Delhi Metro,,28.666717700000003,77.1988974,,,,,
36,268381463,Pul Bangash,station,station,,Delhi Metro,,28.6664068,77.2074156,,,,,
37,268381477,Kashmere Gate,station,station,,Delhi Metro,,28.6674493,77.2282488,,,,,
38,269201529,Kozhikode,station,station,CLT,IR,wlan,11.2459092,75.7803858,CLT,Kozhikode,Kozhikode,Kerala,107
39,266585003,Etawah Junction,station,station,ETW,IR,no,26.786930400000003,79.02093590000001,ETW,Etawah,Etawah,Uttar Pradesh,64
40,276561422,Ambivli,station,station,ABY,IR,,19.267645,73.1718625,ABY,Ambivli,Thane,Maharashtra,0
41,276561622,Titwala,station,station,TLA,IR,no,19.296341400000003,73.2032791,TLA,Titvala,Thane,Maharashtra,0
42,276561755,Khadavli,station,station,KDV,IR,no,19.356724,73.2190375,KDV,Khadavli,Thane,Maharashtra,0
43,276562459,Vithalwadi,station,station,VLDI,IR,no,19.228396,73.1495166,VLDI,Vithalwadi,Thane,Maharashtra,0
44,276562803,Ambernath,station,station,ABH,IR,no,19.209413100000003,73.18519620000001,ABH,Ambarnath,Thane,Maharashtra,0
45,276563224,Badlapur,station,station,BUD,IR,no,19.166623700000002,73.2389064,BUD,Badlapur,Thane,Maharashtra,0
46,276569986,Lonavala,station,station,LNL,IR,no,18.7503694,73.4069436,LNL,Lonavala,Pune,Maharashtra,130
47,279318170,Aruvankadu,station,station,AVK,IR,no,11.359534400000001,76.76961100000001,AVK,Aravankadu,Nilgiris,Tamil Nadu,2
48,279318171,Ketti,station,station,KXT,IR,yes,11.381791100000001,76.7376133,KXT,Ketti,Nilgiris,Tamil Nadu,2
49,279318172,Udhagamandalam,station,station,UAM,IR,wlan,11.4051694,76.6963387,UAM,Udagamandalam,Nilgiris,Tamil Nadu,2
50,279318254,Hill Grove,station,station,HLG,IR,no,11.3420141,76.83566490000001,HLG,Hillgrove,Nilgiris,Tamil Nadu,2
51,279954205,Kallar,station,station,QLR,IR,no,11.338553500000002,76.88290640000001,QLR,Kallar,Nilgiris,Tamil Nadu,2
52,288370387,Erode Junction,station,station,ED,IR,wlan,11.328625800000001,77.7257896,ED,Erode Jn,Erode,Tamil Nadu,169
53,289582025,Khairatabad,station,station,KQD,IR,no,17.4129744,78.46105820000001,KQD,Khairatabad Dcn,Hyderabad,Telangana,0
54,289582401,Necklace Road,station,station,NLRD,IR,no,17.4233355,78.46318570000001,NLRD,Necklace Road,Hyderabad,Telangana,0
55,292671742,Birapatti,station,station,BRPT,IR,,25.406185500000003,82.91304600000001,BRPT,Birapatti,Varanasi,Uttar Pradesh,1
56,293269947,Kashi,station,station,KEI,,,25.3268078,83.0318039,KEI,Kashi,Varanasi,Uttar Pradesh,24
57,297649087,Ajni,station,station,AJNI,IR,no,21.1269226,79.0825751,AJNI,Ajni,Nagpur,Maharashtra,29
58,298611723,Mulki,station,station,MULK,IR,no,13.068958,74.8052727,MULK,Mulki,Dakshina Kannada,Karnataka,18
59,298616683,Badnera Junction,station,station,BD,IR,no,20.857061100000003,77.7321821,BD,Badnera Jn,Amravati,Maharashtra,98
60,298620871,Kaotha,station,station,KAOT,IR,no,20.7373659,78.3773822,KAOT,Kaotha,Wardha,Maharashtra,0
61,298665222,Kanhan Junction,station,station,KNHN,IR,no,21.224885,79.23680870000001,KNHN,Kanthan Jn,Nagpur,Maharashtra,0
62,300062249,Padil,station,station,PADL,IR,no,12.8752966,74.894361,PADL,Padil,Dakshina Kannada,Karnataka,0
63,304278622,Anna Nagar West,station,station,ANNG,IR,no,13.098538600000001,80.2010061,,,,,
64,304281114,Cheruvattur,station,station,CHV,IR,no,12.2145179,75.154426,CHV,Charvattur,Kasaragod,Kerala,16
65,304986468,Neyyattinkara,station,station,NYY,IR,no,8.4100639,77.08162750000001,NYY,Neyyattinkara,Thiruvananthapuram,Kerala,12
66,304986485,Balaramapuram,station,station,BRAM,IR,no,8.429903000000001,77.05190470000001,BRAM,Balaramapuram,Thiruvananthapuram,Kerala,0
67,305221832,Itwari Junction,station,station,NITR,IR,no,21.157503400000003,79.1188261,,,,,
68,305232115,Tumsar Road Junction,station,station,TMR,IR,no,21.342177300000003,79.7511434,TMR,Tumsar Road,Bhandara,Maharashtra,27
69,305234547,Rajnandgaon,station,station,RJN,IR,no,21.1014629,81.0379824,RJN,Raj Nandgaon,Rajnandgaon,Chhatisgarh,64
70,305287020,Bhilai Nagar,station,station,BQR,IR,no,21.2011836,81.3352266,BQR,Bhilai Nagar,Durg,Chhatisgarh,2
71,305287023,Bhilai Power House,station,station,BPHB,IR,no,21.2082282,81.3758068,BPHB,Bhilai Power House,Durg,Chhatisgarh,29
72,305287025,Bhilai,station,station,BIA,IR,no,21.2028719,81.4210875,BIA,Bhilai,Durg,Chhatisgarh,4
73,306425282,Sonma Pranpur halt,station,station,SOPR,,no,25.6320975,86.2255523,SOPR,Sonma Pranpur(H,Begusarai,Bihar,0
74,307015337,Malakpet,station,station,MXT,IR,no,17.376503500000002,78.4948263,MXT,Malakpet Kacheguda,Hyderabad,Telangana,2
75,307023348,Kacheguda,station,station,KCG,IR,wlan,17.389311000000003,78.49924030000001,KCG,Kacheguda,Hyderabad,Telangana,63
76,308073351,Chikka Banavara,station,station,BAW,IR,no,13.074678700000002,77.5056373,BAW,Chik Banavar,Bangalore,Karnataka,8
77,308061696,Hejjala,station,station,HJL,IR,no,12.848411200000001,77.4183276,HJL,Hejjala,Bangalore Rural,Karnataka,2
78,308062102,Kengeri,station,station,KGI,IR,wlan,12.917657100000001,77.48375680000001,KGI,Kengeri,Bangalore,Karnataka,44
79,308062851,Nayandahalli,station,station,NYH,IR,no,12.9413253,77.5212118,NYH,Nayandahalli,Bangalore,Karnataka,6
80,308937020,Moula Ali,station,station,MLY,IR,no,17.440739400000002,78.5506697,MLY,Maula Ali,Hyderabad,Telangana,13
81,310988176,Titagarh,station,station,TGH,IR,,22.741126100000002,88.37458430000001,TGH,Titagarh,North 24 Parganas,West Bengal,2
82,310990693,Tribeni,station,station,TBAE,IR,no,22.990303,88.3982606,TBAE,Tribeni,Hooghly,West Bengal,2
83,310992938,Nasibpur,station,station,NSF,IR,,22.8046405,88.2636731,NSF,Nasibpur,Hooghly,West Bengal,0
84,310993110,Uttarpara,station,station,UPA,IR,no,22.6670459,88.3411458,UPA,Uttarpara,Hooghly,West Bengal,0
85,310996032,Kazipara,station,station,KZPR,IR,,22.7226496,88.5083659,KZPR,Kazipara,Murshidabad,West Bengal,0
86,311395943,Mau Junction,station,station,MAU,IR,,25.9380732,83.56337780000001,MAU,Mau Jn,Mau,Uttar Pradesh,48
87,311963955,Kohat Enclave,station,station,,Delhi Metro,,28.698041500000002,77.1405393,,,,,
88,312613037,Naini Junction,station,station,NYN,IR,no,25.393729,81.86020350000001,NYN,Naini,Prayagraj,Uttar Pradesh,18
89,312814036,Banahi,station,station,BYN,IR,,25.5613457,84.3911004,BYN,Banahi,Bhojpur,Bihar,12
90,312815797,Danapur,station,station,DNR,,,25.582302300000002,85.04632480000001,DNR,Danapur,Patna,Bihar,97
91,312818321,Parsa Bazar,station,station,PRBZ,IR,,25.5496823,85.11904240000001,PRBZ,Parsa Bazar,Patna,Bihar,2
92,312877098,Iradatganj,station,station,IDGJ,IR,no,25.3180224,81.8193512,IDGJ,Iradatganj,Prayagraj,Uttar Pradesh,1
93,312618057,Daraganj,station,station,DRGJ,,,25.443035300000002,81.8804985,DRGJ,Daraganj,Prayagraj,Uttar Pradesh,0
94,312624621,Prayag Junction,station,station,PRG,IR,,25.469048700000002,81.86746980000001,PRG,Prayag,Prayagraj,Uttar Pradesh,29
95,312630864,Sarai Chandi,station,station,SYC,Indian Railways,,25.539384300000002,81.9799978,SYC,Sarai Chandi,Prayagraj,Uttar Pradesh,2
96,312632511,Phulpur,station,station,PLP,Indian Railways,,25.5521275,82.0907128,PLP,Phulpur,Prayagraj,Uttar Pradesh,14
97,312634962,Manauri,station,station,MRE,IR,,25.4698192,81.6619051,MRE,Manauri,Kaushambi,Uttar Pradesh,1
98,316673866,Getor Jagatpura,station,station,GTJT,IR,no,26.837001,75.8320226,GTJT,Getor Jagatpura,Jaipur,Rajasthan,19
99,316681502,Dahar-Ka-Balaji,station,station,DKBJ,IR,no,26.9445145,75.766114,DKBJ,Dahar Ka Balaji,Jaipur,Rajasthan,3
100,316683309,Govindgarh Malikpur,station,station,GND,IR,no,27.2403553,75.6461932,GND,Govindgarh Malk,Jaipur,Rajasthan,3
101,316684768,Vrindavan,station,station,BDB,IR,no,27.576332,77.6942078,BDB,Vrindavan,Mathura,Uttar Pradesh,0
102,316828928,Hetampur,station,station,HET,IR,no,26.6108502,77.9437529,HET,Hetampur,Morena,Madhya Pradesh,0
103,316830390,Shivpuri,station,station,SVPI,IR,no,25.438084200000002,77.63815220000001,SVPI,Shivpuri,Shivpuri,Madhya Pradesh,18
104,317047338,Anand Junction,station,station,ANND,IR,no,22.561721300000002,72.9659457,ANND,Anand Jn,Anand,Gujarat,183
105,317047858,Sadanapura,station,station,SNA,IR,no,22.6011883,73.0113438,SNA,Sadanapura,Anand,Gujarat,0
106,317049926,Savli,station,station,SVLI,IR,no,22.555925000000002,73.22721250000001,SVLI,Savli,Vadodara,Gujarat,0
107,318132819,Vishwamitri Junction,station,station,VS,IR,no,22.284609600000003,73.17898290000001,VS,Vishvamitri,Vadodara,Gujarat,7
108,318135704,Pratapnagar,station,station,PRTN,IR,no,22.2814988,73.21083250000001,PRTN,Pratapnagar,Vadodara,Gujarat,0
109,318140382,Makarpura,station,station,MPR,IR,no,22.233662000000002,73.1759325,MPR,Makarpura,Vadodara,Gujarat,0
110,318143159,Chhayapuri,station,station,CYI,IR,no,22.3712532,73.16564460000001,CYI,Chhayapuri,Vadodara,Gujarat,2
111,318143940,Bajva,station,station,BJW,IR,no,22.366843300000003,73.14378,BJW,Bajva,Vadodara,Gujarat,2
112,318156510,Kanjari Boriyavi Junction,station,station,KBRV,IR,no,22.615674900000002,72.92183340000001,KBRV,Kanjari Boriyav,Kheda,Gujarat,8
113,318157831,Vadod,station,station,VXD,IR,no,22.514477000000003,73.0083139,VXD,Vadod,Anand,Gujarat,0
114,318157883,Adas Road,station,station,ADD,IR,no,22.486905200000002,73.0338876,ADD,Adas Road,Anand,Gujarat,0
115,318158761,Vasad Junction,station,station,VDA,IR,no,22.4528694,73.0606454,VDA,Vasad Jn,Anand,Gujarat,6
116,318159226,Nandesari,station,station,NDR,IR,no,22.4178037,73.0949186,NDR,Nandesari,Anand,Gujarat,0
117,316775607,Dhaurmui Jaghina,station,station,DUM,IR,no,27.291873900000002,77.5362053,DUM,Dhaurmui Jaghna,Bharatpur,Rajasthan,0
118,318258387,Vallabh Vidynagar,station,station,VLYN,IR,no,22.5423493,72.9310688,VLYN,Vallabh Vdyangr,Anand,Gujarat,0
119,319330553,Pilol,station,station,PIO,IR,no,22.415153200000002,73.20987960000001,PIO,Pilol,Vadodara,Gujarat,2
120,322770856,Naroda,station,station,NRD,IR,no,23.085409700000003,72.6580946,NRD,Naroda,Ahmadabad,Gujarat,0
121,322983346,Vastrapur,station,station,VTP,IR,no,23.007906400000003,72.5174367,VTP,Vastrapur,Ahmadabad,Gujarat,0
122,323120091,Maninagar,station,station,MAN,IR,no,22.9986596,72.61140130000001,MAN,Mani Nagar,Ahmadabad,Gujarat,36
123,323189766,Sabarmati,station,station,SBIB,IR,no,23.077071200000002,72.5890677,SBIB,Sabarmati Bg,Ahmadabad,Gujarat,40
124,334641675,Kappil,station,station,KFI,IR,,8.7795558,76.6792879,KFI,Kappil,Thiruvananthapuram,Kerala,0
125,334652322,Mayyanad,station,station,MYY,IR,no,8.8380291,76.6476808,MYY,Mayyanad,Kollam,Kerala,6
126,335560058,Kadakavur,station,station,KVU,IR,no,8.6786987,76.76764270000001,KVU,Kadakavur,Thiruvananthapuram,Kerala,14
127,335560073,Chirayinkeezh,station,station,CRY,IR,no,8.659555600000001,76.78555510000001,CRY,Chirayinkil,Thiruvananthapuram,Kerala,14
128,335867995,Settigunta,station,station,SF,IR,no,13.870358000000001,79.3841762,SF,Settigunta,Y.S.R.,Andhra Pradesh,0
129,338274462,Yelahanka Junction,station,station,YNK,IR,no,13.1050067,77.59189380000001,YNK,Yelhanka Jn,Bangalore,Karnataka,43
130,342121373,Nagothane,station,station,NGTN,IR,no,18.5402418,73.1406194,NGTN,Nagothane,Raigad,Maharashtra,0
131,343304315,Pune Junction,station,station,PUNE,IR,wlan,18.5288773,73.87441460000001,PUNE,Pune Jn,Pune,Maharashtra,234
132,343319245,Nature Cure Hospital,station,station,NCHS,IR,no,17.445657100000002,78.45214870000001,NCHS,Nature Cure Hospital,Hyderabad,Telangana,0
133,343641073,Begumpet,station,station,BMT,IR,no,17.4386951,78.4580969,BMT,Begampet,Hyderabad,Telangana,46
134,344463079,Chalakudi,station,station,CKI,IR,no,10.3023854,76.321561,CKI,Chalakudi,Thrissur,Kerala,34
135,345195351,Chandigarh Railway Station,station,station,CDG,IR,no,30.702162200000004,76.8214533,CDG,Chandigarh,Chandigarh,Chandigarh,66
136,345195380,Ghagghar,station,station,GHG,IR,no,30.610286400000003,76.8482707,GHG,Ghagghar,S.A.S. Nagar,Punjab,0
137,345195425,Dhulkot,station,station,DKT,IR,no,30.3960955,76.7877754,DKT,Dhulkot,Ambala,Haryana,2
138,345195453,Mohri,station,station,MOY,IR,no,30.255527500000003,76.8504589,MOY,Mohri,Ambala,Haryana,0
139,345195476,Shahabad Markanda,station,station,SHDM,IR,no,30.1658852,76.8616655,SHDM,Shahbad Marknda,Kurukshetra,Haryana,13
140,345195481,Dhola Mazra,station,station,DHMZ,IR,no,30.1153978,76.8538341,DHMZ,Dhola Mazra,Kurukshetra,Haryana,0
141,345195495,Dhirpur,station,station,DPP,IR,no,30.0664157,76.8444394,DPP,Dhirpur,Kurukshetra,Haryana,0
142,345195502,Dhoda Kheri,station,station,DHKR,IR,no,30.0185597,76.84241080000001,DHKR,Dhoda Khedi,Kurukshetra,Haryana,0
143,345195515,Kurukshetra Junction,station,station,KKDE,IR,no,29.969858700000003,76.8517108,KKDE,Kurukshetra Jn,Kurukshetra,Haryana,56
144,345195519,Amin,station,station,AMIN,IR,no,29.904621300000002,76.8996025,AMIN,Amin,Kurukshetra,Haryana,0
145,345195547,Nilokheri,station,station,NLKR,IR,no,29.831979200000003,76.9254714,NLKR,Nilokheri,Karnal,Haryana,8
146,345195574,Bhaini Khurd,station,station,BZK,IR,no,29.7519953,76.95552930000001,BZK,Bhaini Khurd,Karnal,Haryana,0
147,345195615,Gharaunda,station,station,GRA,IR,no,29.540876800000003,76.96537740000001,GRA,Gharaunda,Karnal,Haryana,10
148,345195621,Kohand,station,station,KFU,IR,no,29.4956582,76.9685943,KFU,Kohand,Karnal,Haryana,0
149,345195626,Babarpur,station,station,BBDE,IR,no,29.4499843,76.9666194,BBDE,Babarpur,Panipat,Haryana,0
150,345195648,Diwana,station,station,DWNA,IR,no,29.318070900000002,76.98015670000001,DWNA,Diwana,Panipat,Haryana,0
151,345195663,Bhodwal Majri,station,station,BDMJ,IR,no,29.1852264,77.00841890000001,BDMJ,Bhodwal Majri,Panipat,Haryana,1
152,345195671,Ganaur,station,station,GNU,IR,no,29.131525600000003,77.01108860000001,GNU,Ganaur,Sonipat,Haryana,15
153,345195701,Barota,station,station,RDDE,IR,no,28.9038916,77.0591895,RDDE,Rathdhana,Sonipat,Haryana,1
154,345195776,Panipat Junction,station,station,PNP,IR,no,29.390329400000002,76.96408500000001,PNP,Panipat Jn,Panipat,Haryana,85
155,345195782,Bazida Jatan,station,station,BZJT,IR,no,29.6134124,76.9654962,BZJT,Bazida Jatan,Karnal,Haryana,0
156,345195834,Narela,station,station,NUR,IR,no,28.846476600000003,77.0856631,NUR,Narela,North,Delhi,12
157,345195836,Sandal Kalan,station,station,SLKN,IR,no,29.0634081,77.0128043,SLKN,Sandal Kalan,Sonipat,Haryana,0
158,345195841,Holambi Kalan,station,station,HUK,IR,no,28.801578600000003,77.10248320000001,HUK,Holambi Kalan,North West,Delhi,0
159,345199448,Khera Kalan,station,station,KHKN,IR,no,28.7696903,77.1158609,KHKN,Khera Kalan,North West,Delhi,0
160,345234441,Karol Bagh,station,station,,Delhi Metro,,28.644012200000002,77.1885235,,,,,
161,345322690,Chandi Mandir,station,station,CNDM,IR,no,30.7270873,76.88722270000001,CNDM,Chandi Mandir,Panchkula,Haryana,8
162,345332167,Kalka,station,station,KLK,IR,no,30.839229500000002,76.93156470000001,KLK,Kalka,Panchkula,Haryana,18
163,347138797,Khar Road,station,station,KHAR,Mumbai Suburban Railway,no,19.0682411,72.8400412,KHAR,Khar,Mumbai Suburban,Maharashtra,0
164,347408470,Khanna,station,station,KNN,IR,no,30.708775000000003,76.223487,KNN,Khanna,Ludhiana,Punjab,32
165,347408489,Rajpura Junction,station,station,RPJ,IR,no,30.486276800000002,76.59362420000001,RPJ,Rajpura Jn,Patiala,Punjab,64
166,347671501,Jandiala,station,station,JNL,IR,no,31.589229800000002,75.0568715,JNL,Jandiala,Amritsar,Punjab,9
167,347676531,Kirti Nagar (Blue Line),station,station,KNR,Delhi Metro,,28.655746,77.15066350000001,KNR,Kankinara,North 24 Parganas,West Bengal,2
168,347676595,Shadipur,station,station,,Delhi Metro,,28.6515829,77.1582587,,,,,
169,347676947,Moti Nagar,station,station,,Delhi Metro,,28.657859000000002,77.1424288,,,,,
170,348031798,Goraya,station,station,GRY,IR,no,31.129890500000002,75.7741716,GRY,Goraya,Jalandhar,Punjab,5
171,348469810,Khurdpur,station,station,KUPR,IR,no,31.4256904,75.7236871,KUPR,Khurdpur,Jalandhar,Punjab,1
172,348490338,Tarakeswar,station,station,TAK,IR,,22.882398700000003,88.01420060000001,TAK,Tarakeswar,Hooghly,West Bengal,0
173,353002120,Kuzhiturai,station,station,KZT,IR,no,8.3013061,77.2186619,KZT,Kulitthurai,Kanyakumari,Tamil Nadu,16
174,353002292,Nagercoil Junction,station,station,NCJ,IR,wlan,8.174535,77.4438789,NCJ,Nagercoil Jn,Kanyakumari,Tamil Nadu,52
175,353002340,Aralvaymozhi,station,station,AAY,IR,no,8.248355700000001,77.52792840000001,AAY,Aralvaymozhi,Kanyakumari,Tamil Nadu,4
176,353002398,N. Panakudi,station,station,NPK,IR,no,8.3146578,77.5814273,NPK,North Panakudi,Tirunelveli,Tamil Nadu,2
177,353002619,Nanguneri,station,station,NNN,IR,no,8.489839100000001,77.6632221,NNN,Nanguneri,Tirunelveli,Tamil Nadu,8
178,353052107,Kadayanallur,station,station,KDNL,IR,no,9.0856852,77.3629798,KDNL,Kadaynallur,Tenkasi,Tamil Nadu,6
179,353681335,Jaisalmer,station,station,JSM,IR,wlan,26.9150208,70.92674600000001,JSM,Jaisalmer,Jaisalmer,Rajasthan,15
180,353681375,Thaiyat Hamira,station,station,THM,IR,no,26.993275500000003,71.07829720000001,THM,Thalyat Hamira,Jaisalmer,Rajasthan,0
181,353681421,Jetha Chandan,station,station,JCH,IR,no,27.000056800000003,71.30654340000001,JCH,Jetha Chandan,Jaisalmer,Rajasthan,0
182,353681478,Odhaniya Chacha,station,station,OCH,IR,no,26.9708019,71.72369400000001,OCH,Odhaniya Chacha,Jaisalmer,Rajasthan,0
183,353681517,Ashapura Gomat,station,station,AQG,IR,no,26.950560600000003,71.89309680000001,AQG,Ashapura Gomat,Jaisalmer,Rajasthan,11
184,353681575,Ramdevra,station,station,RDRA,IR,no,27.0070434,71.93014720000001,RDRA,Ramdevra,Jaisalmer,Rajasthan,15
185,353681709,Dhelana,station,station,DLNA,IR,no,26.946770700000002,72.65281590000001,DLNA,Dhelana,Jodhpur,Rajasthan,0
186,353681757,Harlaya,station,station,HRLI,IR,no,26.867412400000003,72.7208476,HRLI,Harlaya,#N/A,,0
187,353681903,Manaklao,station,station,MLH,IR,no,26.456227900000002,73.0203671,MLH,Manaklao,Jodhpur,Rajasthan,0
188,353853239,Kolayat,station,station,KLYT,IR,no,27.836218300000002,72.9554371,KLYT,Kolayat,Bikaner,Rajasthan,6
189,353853329,Lalgarh Junction,station,station,LGH,IR,no,28.0434306,73.31453540000001,LGH,Lalgarh Jn,Bikaner,Rajasthan,20
190,353853357,Bikaner Junction,station,station,BKN,IR,no,28.015244300000003,73.3156415,BKN,Bikaner Jn,Bikaner,Rajasthan,60
191,353853509,Nokha,station,station,NOK,IR,no,27.5552713,73.4755961,NOK,Nokha,Bikaner,Rajasthan,40
192,353853646,Nagaur,station,station,NGO,IR,no,27.2000117,73.7237044,NGO,Nagaur,Nagaur,Rajasthan,44
193,353853671,Marwar Mundwa,station,station,MDW,IR,no,27.0638466,73.815932,MDW,Marwar Mundwa,Nagaur,Rajasthan,6
194,353854806,کھوکھراپار,station,station,,,,25.6998815,70.19517540000001,,,,,
195,353854808,Munabao,station,station,MBF,IR,no,25.743679800000002,70.27723370000001,MBF,Munabao,Barmer,Rajasthan,2
196,350594661,Sithouli,station,station,STLI,IR,no,26.146540100000003,78.18720230000001,STLI,Sithouli,Gwalior,Madhya Pradesh,0
197,350598861,Virangana Lakshmibai Jhansi Junction,station,station,VGLJ,Indian Railways,wlan,25.44395,78.5534422,,,,,
198,355629235,Besroli,station,station,BSRL,IR,no,26.9913913,74.5612921,BSRL,Besroli,Nagaur,Rajasthan,2
199,355629303,Thathana Mithri,station,station,THMR,IR,no,27.055107600000003,74.89806610000001,THMR,Thathana Mithri,Nagaur,Rajasthan,4
200,355629522,Saradhna,station,station,SDH,IR,no,26.3405491,74.56635920000001,SDH,Saradhna,Ajmer,Rajasthan,0
201,355629615,Piplaj,station,station,PPF,IR,no,26.1669601,74.3807823,PPF,Piplaj,Ajmer,Rajasthan,0
202,355629622,Beawar,station,station,BER,IR,no,26.107055900000002,74.31284240000001,BER,Beawar,Ajmer,Rajasthan,47
203,355700617,Charbhuja Road,station,station,CBG,IR,no,25.300731000000003,73.9215281,CBG,Charbhuja Road,Rajsamand,Rajasthan,2
204,355747516,Jalor,station,station,JOR,IR,no,25.3543102,72.63416450000001,JOR,Jalore,Jalore,Rajasthan,10
205,355747563,Marwar Bhinmal,station,station,MBNL,IR,no,25.0010136,72.27576640000001,MBNL,Marwar Bhinmal,Jalore,Rajasthan,10
206,355747666,Bhildi Junction,station,station,BLDI,IR,no,24.194424400000003,72.0093403,BLDI,Bhildi,Banas Kantha,Gujarat,16
207,358800211,Dharmapuri,station,station,DPJ,IR,no,12.1258613,78.154221,DPJ,Dharmapuri,Dharmapuri,Tamil Nadu,20
208,359921216,Sriganganagar Junction,station,station,SGNR,IR,no,29.931964500000003,73.87234480000001,SGNR,Shri Ganganagar,Ganganagar,Rajasthan,37
209,359921395,Sadulshahar,station,station,SDS,IR,no,29.9030191,74.17217670000001,SDS,Sadulshahr,Ganganagar,Rajasthan,14
210,360366007,Manaksar,station,station,MNSR,IR,no,29.6798664,74.383674,MNSR,Manaksar,Hanumangarh,Rajasthan,4
211,360366059,Hanumangarh Town,station,station,HMO,IR,no,29.5744086,74.3312387,HMO,Hanumangarh Town,Hanumangarh,Rajasthan,6
212,360366353,Churu Junction,station,station,CUR,IR,no,28.288864500000003,74.9664018,CUR,Churu,Churu,Rajasthan,30
213,360366732,Napasar,station,station,NPS,IR,no,27.9810152,73.5637013,NPS,Napasar,Bikaner,Rajasthan,6
214,360367331,Suratgarh Junction,station,station,SOG,IR,no,29.3233801,73.907064,SOG,Suratgarh Jn,Ganganagar,Rajasthan,33
215,360586731,Loharu Junction,station,station,LHU,IR,no,28.4271303,75.80320900000001,LHU,Loharu,Bhiwani,Haryana,15
216,360619312,Jhilo,station,station,JLLO,IR,no,27.848368,75.8850984,JLLO,Jhilo,Sikar,Rajasthan,0
217,360619343,Narnaul,station,station,NNL,IR,no,28.0447722,76.12327280000001,NNL,Narnaul,Mahendragarh,Haryana,8
218,360619472,Jaswantgarh,station,station,JSH,IR,no,27.667634200000002,74.44290190000001,JSH,Jaswantgarh,Nagaur,Rajasthan,1
219,360619620,Bidiyad,station,station,BIDD,IR,no,26.9809136,74.7037141,BIDD,Bidiyad,Nagaur,Rajasthan,2
220,360650988,Gulabpura,station,station,GBP,IR,no,25.902532100000002,74.6555833,GBP,Gulabpura,Bhilwara,Rajasthan,2
221,367556529,Pugalur,station,station,PGR,IR,no,11.0514132,77.99161430000001,PGR,Pugalur,Karur,Tamil Nadu,12
222,367556637,Karur Junction,station,station,KRR,IR,wlan,10.965807600000002,78.08495620000001,KRR,Karur,Karur,Tamil Nadu,59
223,367612325,Palayam.I,station,station,PALM,IR,no,10.718816100000002,78.1292088,PALM,Palaiyam,Dindigul,Tamil Nadu,2
224,367666445,Omalur Junction,station,station,OML,IR,no,11.7382934,78.0449299,OML,Omalur,Salem,Tamil Nadu,2
225,386483233,Chikhale,station,station,CKHS,IR,no,18.9737547,73.15194100000001,CKHS,Chikhale,Raigad,Maharashtra,2
226,389475236,Thondebhavi,station,station,TDV,IR,no,13.503993000000001,77.5149549,TDV,Thondebhavi,Chikkaballapura,Karnataka,0
227,389475284,Devarapalli,station,station,DPE,IR,no,13.7232336,77.51194770000001,DPE,Devarapalle,Anantapur,Andhra Pradesh,0
228,389475324,Malugur,station,station,MLU,IR,no,13.891792700000002,77.54166450000001,MLU,Malugur,Anantapur,Andhra Pradesh,0
229,389475413,Hirehalli,station,station,HHL,IR,no,13.280664900000001,77.1887827,HHL,Hirehali,Tumakuru,Karnataka,0
230,389475419,Kyatsandra,station,station,KIAT,IR,no,13.3156102,77.147748,KIAT,Kyatsandra,Tumakuru,Karnataka,0
231,391345820,Bardoli,station,station,BIY,IR,no,21.1338291,73.10538960000001,BIY,Bardoli,Surat,Gujarat,4
232,414782961,Surat,station,station,ST,IR,no,21.2050293,72.8407427,ST,Surat,Surat,Gujarat,313
233,414849419,Madhi,station,station,MID,IR,no,21.1457123,73.24240250000001,MID,Madhi,Surat,Gujarat,2
234,431201162,Parassala,station,station,PASA,IR,,8.339723600000001,77.165665,PASA,Parashshala,Thiruvananthapuram,Kerala,10
235,443807288,Banaswadi,station,station,BAND,IR,no,13.0058357,77.6281321,BAND,Banaswadi,Bangalore,Karnataka,41
236,443811552,Channasandra,station,station,CSDR,IR,no,13.011856600000002,77.6628136,CSDR,Channasandra,Bangalore,Karnataka,0
237,447758220,Ludhiana Junction,station,station,LDH,IR,no,30.912251700000002,75.84937570000001,LDH,Ludhiana Jn,Ludhiana,Punjab,205
238,448146952,Nandol Dahegam,station,station,NHM,IR,no,23.173429600000002,72.8161565,NHM,Nandol Dehegam,Gandhinagar,Gujarat,0
239,468732267,Kosli,station,station,KSI,IR,no,28.4114849,76.46548440000001,KSI,Kosli,Rewari,Haryana,2
240,477127497,Jalandhar Cantonment Junction,station,station,JRC,IR,no,31.3073313,75.63119920000001,JRC,Jalandhar Cant,Jalandhar,Punjab,113
241,506280911,Malavli,station,station,MVL,IR,no,18.744214500000002,73.4801637,MVL,Malavli,Pune,Maharashtra,0
242,506820143,Chiplun,station,station,CHI,IR,no,17.5423529,73.522233,CHI,Chiplun,Ratnagiri,Maharashtra,84
243,506820192,Khed,station,station,KHED,IR,no,17.712569600000002,73.41066380000001,KHED,Khed,Ratnagiri,Maharashtra,57
244,506820481,Apta,station,station,APTA,IR,no,18.8637081,73.15329890000001,APTA,Apta,Raigad,Maharashtra,0
245,520485698,Kanwalpura,station,station,KIW,IR,no,24.7807321,75.9830709,KIW,Kanwalpura,Kota,Rajasthan,2
246,521573847,Bhawani Mandi,station,station,BWM,IR,no,24.4192876,75.83028370000001,BWM,Bhawani Mandi,Jhalawar,Rajasthan,45
247,529961817,Vaitarna,station,station,VTN,Mumbai Suburban Railway,no,19.5186517,72.8499772,VTN,Vaitarna,Palghar,Maharashtra,0
248,529961821,Saphale,station,station,SAH,Mumbai Suburban Railway,no,19.5771316,72.8218812,SAH,Saphale,Palghar,Maharashtra,4
249,533754608,Khandala,station,station,KAD,IR,no,18.7548469,73.37670920000001,KAD,Khandala,Pune,Maharashtra,11
250,535297593,Sikanderpur,station,station,SKRP,Delhi Metro,,28.481271600000003,77.0930017,,,,,
251,554257763,Delhi Aerocity,station,station,DACY,Delhi Metro,,28.548778600000002,77.1207949,,,,,
252,554257787,Hauz Khas (Yellow Line),station,station,HKS,Delhi Metro,no,28.544256400000002,77.20670720000001,,,,,
253,554257833,Shivaji Stadium,station,station,SJSU,Delhi Metro,,28.6288963,77.21132180000001,,,,,
254,554257841,New Delhi,station,station,NDLS,Delhi Metro,,28.643482600000002,77.2227421,NDLS,New Delhi,Central,Delhi,244
255,559148148,Kalianpur,station,station,KAP,,,26.503251700000003,80.25268630000001,KAP,Kalianpur,Kanpur Nagar,Uttar Pradesh,7
256,560706957,Indore Junction,station,station,INDB,IR,no,22.717006400000002,75.8684722,INDB,Indore Jn Bg,Indore,Madhya Pradesh,84
257,561316983,Tis Hazari,station,station,,Delhi Metro,,28.6671626,77.2166306,,,,,
258,564716972,Daliganj,station,station,DAL,IR,,26.8753418,80.92757230000001,DAL,Daliganj,Lucknow,Uttar Pradesh,3
259,564718427,Lucknow Charbagh,station,station,LKO,IR,wlan,26.831158300000002,80.92436090000001,LKO,Lucknow,Lucknow,Uttar Pradesh,255
260,564718469,Lucknow City,station,station,LC,IR,,26.859306500000002,80.9180893,LC,Lucknow City,Lucknow,Uttar Pradesh,14
261,566141537,Gamharia Jn.,station,station,GMH,IR,no,22.796569700000003,86.10113270000001,GMH,Gamharia,Saraikela Kharsawan,Jharkhand,2
262,565493579,Mohiuddinpur,station,station,MUZ,IR,no,28.8857645,77.6220085,MUZ,Mohiuddinpur,Ghaziabad,Uttar Pradesh,1
263,565494323,Meerut Cantonment,station,station,MUT,IR,no,29.0163246,77.68709820000001,MUT,Meerut Cant,Meerut,Uttar Pradesh,17
264,566222693,Asarva,station,station,ASV,IR,no,23.0440925,72.6132157,ASV,Asarva Jn,Ahmadabad,Gujarat,2
265,566223451,Sardargram,station,station,SDGM,IR,no,23.0715012,72.6424393,SDGM,Sardargram,Ahmadabad,Gujarat,2
266,566226583,Dabhoda,station,station,DBO,IR,no,23.1647156,72.7435768,DBO,Dabhoda,Gandhinagar,Gujarat,0
267,566228737,Rakhiyal,station,station,RKH,IR,no,23.2541891,72.8994569,RKH,Rakhiyal,Gandhinagar,Gujarat,0
268,566229649,Talod,station,station,TOD,IR,no,23.3513439,72.9477713,TOD,Talod,Sabarkantha,Gujarat,0
269,566232038,Prantij,station,station,PRJ,IR,no,23.4304431,72.86642350000001,PRJ,Prantij,Sabarkantha,Gujarat,0
270,566235384,Sonasan,station,station,SNSN,IR,no,23.488448400000003,72.8940932,SNSN,Sonasan,Sabarkantha,Gujarat,0
271,566240551,Raigadh Road,station,station,RGQ,IR,no,23.5972352,73.18405750000001,RGQ,Raigadh Road,Sabarkantha,Gujarat,0
272,566240929,Shamlaji Road,station,station,SJS,IR,no,23.634494500000002,73.34269970000001,SJS,Shamlaji Road,Sabarkantha,Gujarat,0
273,566242191,Lusadiya,station,station,LSD,IR,no,23.685634200000003,73.42095590000001,LSD,Lusadiya,Sabarkantha,Gujarat,0
274,566247524,Jagabor,station,station,JO,IR,no,23.7402458,73.453782,JO,Jo Jagabor,Sabarkantha,Gujarat,0
275,566248643,Bechhiwara,station,station,BHWA,IR,no,23.787871600000003,73.5351876,BHWA,Bechhiwara,Dungarpur,Rajasthan,0
276,566252897,Shri Bhavnath,station,station,SBHN,IR,no,23.814389700000003,73.5853022,SBHN,Shri Bhavnath,Dungarpur,Rajasthan,0
277,566258114,Umra,station,station,UMRA,IR,no,24.5229721,73.7722414,UMRA,Umra,Udaipur,Rajasthan,0
278,566277772,Degana Junction,station,station,DNA,IR,no,26.8970658,74.316992,DNA,Degana Jn,Nagaur,Rajasthan,63
279,566718085,New Jalpaiguri Junction,station,station,NJP,IR,wlan,26.682855200000002,88.4424796,NJP,New Jalpaiguri,Jalpaiguri,West Bengal,147
280,567146148,Fateha,station,station,FAH,,,25.599064900000002,85.86287870000001,FAH,Fateha Halt,Begusarai,Bihar,0
281,567146153,Mohiuddinnagar,station,station,MOG,,,25.606530000000003,85.7036896,MOG,Mohiuddinnagar,Samastipur,Bihar,8
282,567473755,Laksar Junction,station,station,LRJ,IR,,29.751543400000003,78.0212446,LRJ,Laksar Jn,Haridwar,Uttarakhand,70
283,567473784,Saharanpur Junction,station,station,SRE,IR,no,29.9614586,77.5412397,SRE,Saharanpur,Saharanpur,Uttar Pradesh,120
284,567473843,Haridwar,station,station,HW,IR,,29.9474705,78.1543255,HW,Haridwar Jn,Haridwar,Uttarakhand,72
285,567473876,Kartarpur,station,station,KRE,IR,no,31.432924800000002,75.49183860000001,KRE,Kartarpur,Jalandhar,Punjab,10
286,569908364,Kendrapara Road,station,station,KNPR,IR,no,20.4985117,85.9178107,KNPR,Kendrapara Road,Cuttack,Odisha,1
287,571578291,Padubidri,station,station,PDD,IR,no,13.196988500000002,74.7680651,PDD,Padubidri,Udupi,Karnataka,2
288,571579127,Bhatkal,station,station,BTJL,IR,no,13.9893566,74.5656301,BTJL,Bhatkal,Uttara Kannada,Karnataka,38
289,571579771,Karwar,station,station,KAWR,IR,no,14.8202478,74.18259060000001,KAWR,Karwar,Uttara Kannada,Karnataka,69
290,571580159,Karmali,station,station,KRMI,IR,no,15.490453800000001,73.92455220000001,KRMI,Karmali,North Goa,Goa,30
291,571749457,Roha,station,station,ROHA,IR,no,18.44658,73.12387220000001,ROHA,Roha,Raigad,Maharashtra,54
292,571763990,Naya Ghaziabad,station,station,GZN,IR,no,28.6743756,77.43778640000001,GZN,New Ghaziabad,Ghaziabad,Uttar Pradesh,7
293,571775041,Kalanour,station,station,KNZ,IR,no,30.082838400000004,77.33983830000001,KNZ,Kalanour,Rohtak,Haryana,2
294,577489912,Kalaikunda,station,station,KKQ,IR,no,22.3296296,87.2448777,KKQ,Kalaikunda,Paschim Medinipur,West Bengal,3
295,577490057,Sini Junction,station,station,SINI,IR,no,22.7891015,85.94682300000001,SINI,Sini Jn,Saraikela Kharsawan,Jharkhand,14
296,582437498,Belagavi,station,station,BGM,IR,no,15.849056800000001,74.50894310000001,BGM,Belagavi,Belagavi,Karnataka,46
297,587621622,Budaun,station,station,BEM,IR,,28.0286498,79.137005,BEM,Budaun,Budaun,Uttar Pradesh,4
298,596933637,Patiala,station,station,PTA,IR,no,30.3421592,76.40226650000001,PTA,Patiala,Patiala,Punjab,14
299,600364202,Siddampalli,station,station,SIE,IR,no,13.1598669,79.1371192,SIE,Siddampalli,Chittoor,Andhra Pradesh,0
300,600393279,Rupsa Junction,station,station,ROP,IR,no,21.6223651,87.01887400000001,ROP,Rupsa Jn,Balasore,Odisha,8
301,600393296,Jaleswar,station,station,JER,IR,no,21.797637100000003,87.22006370000001,JER,Jaleswar,Balasore,Odisha,36
302,600395018,Sora,station,station,SORO,IR,no,21.291141800000002,86.6923513,SORO,Soro,Balasore,Odisha,20
303,600399581,Bhadrak Junction,station,station,BHC,IR,no,21.0909064,86.51654210000001,BHC,Bhadrakh,Bhadrak,Odisha,119
304,600418711,Jakhapura Junction,station,station,JKPR,IR,no,20.9162794,86.0647151,JKPR,Jakhapura,Jajpur,Odisha,4
305,600643762,Jajpur Keonjhar Road Junction,station,station,JJKR,IR,no,20.9435669,86.133103,JJKR,Jajpur Keonjhar Road,Jajpur,Odisha,97
306,600644263,Byree,station,station,BYY,IR,no,20.6284141,86.0351983,BYY,Byree,Jajpur,Odisha,0
307,600644273,Dhanmandal,station,station,DNM,IR,no,20.686843800000002,86.1124226,DNM,Dhanmandal,Jajpur,Odisha,6
308,600645253,Narayangarh,station,station,NYA,IR,no,22.1738624,87.3810303,NYA,Narayangarh,Paschim Medinipur,West Bengal,1
309,600748572,Vizianagaram Junction,station,station,VZM,IR,no,18.1114637,83.396325,VZM,Vizianagram Jn,Vizianagaram,Andhra Pradesh,179
310,600756813,Santragachi Junction,station,station,SRC,IR,no,22.584699500000003,88.2830722,SRC,Santragachi Jn,Kolkata,West Bengal,95
311,600807132,Visakhapatnam,station,station,VSKP,IR,wlan,17.7214305,83.29062230000001,VSKP,Visakhapatnam,Visakhapatnam,Andhra Pradesh,201
312,603241250,Gadwal,station,station,GWD,IR,no,16.2251954,77.809493,GWD,Gadwal,Jogulamba Gadwal,Telangana,38
313,603465184,Chigicherla,station,station,CCA,IR,no,14.5165673,77.6840937,CCA,Chigicherla,Anantapur,Andhra Pradesh,0
314,603465221,Zangalapalli,station,station,ZPL,IR,no,14.590082,77.64180300000001,ZPL,Zangalapalle,Anantapur,Andhra Pradesh,0
315,603465339,Ramaraju Palli,station,station,RRJ,IR,no,15.041212000000002,77.6174948,RRJ,Ramaraju Palli,Anantapur,Andhra Pradesh,0
316,603465353,Turkapalli,station,station,TKPY,IR,no,15.0872866,77.6281369,TKPY,Turakapalli,Anantapur,Andhra Pradesh,0
317,603465403,Pendekallu Junction,station,station,PDL,IR,no,15.374303900000001,77.6485895,PDL,Pendekallu,Kurnool,Andhra Pradesh,2
318,603465448,Malliyala,station,station,MYL,IR,no,15.3969207,77.7753409,MYL,Malliyala,Kurnool,Andhra Pradesh,0
319,603465494,Veldurti,station,station,VDI,IR,no,15.553559300000002,77.92745430000001,VDI,Veldurti,Kurnool,Andhra Pradesh,0
320,603465534,Dupadu,station,station,DUU,IR,no,15.7429853,78.01310550000001,DUU,Dupadu,Kurnool,Andhra Pradesh,0
321,603465550,Kurnool City,station,station,KRNT,IR,no,15.832599300000002,78.03262240000001,KRNT,Kurnool Town,Kurnool,Andhra Pradesh,50
322,603465570,Alampur Road,station,station,ALPR,IR,no,15.8955201,78.04681450000001,ALPR,Alampur Road,Jogulamba Gadwal,Telangana,0
323,603714964,Raiwala Junction,station,station,RWL,IR,,30.0324451,78.2098631,RWL,Raiwala,Dehradun,Uttarakhand,14
324,604925197,Turavur,station,station,TUVR,IR,no,9.7749279,76.3102752,TUVR,Turavur,Alappuzha,Kerala,14
325,604925313,Cherthala,station,station,SRTL,IR,no,9.691203600000001,76.32571680000001,SRTL,Shertalai,Alappuzha,Kerala,30
326,606355995,Jalgaon Junction,station,station,JL,IR,no,21.017979800000003,75.5632539,JL,Jalgaon Jn,Jalgaon,Maharashtra,141
327,617332502,Ramanagaram,station,station,RMGM,IR,no,12.7210476,77.28373760000001,RMGM,Ramanagaram,Ramanagara,Karnataka,33
328,619119023,Kalva,station,station,KLVA,IR,no,19.1952243,72.9963331,KLVA,Kalva,Thane,Maharashtra,0
329,619992025,Kanjur Marg,station,station,KJRD,IR,no,19.1296868,72.92837010000001,KJRD,Kanjur Marg,Mumbai Suburban,Maharashtra,0
330,620013256,Vidyavihar,station,station,VVH,IR,no,19.079542200000002,72.8971169,VVH,Vidyavihar,Mumbai Suburban,Maharashtra,0
331,621911847,Lower Parel,station,station,PL,Mumbai Suburban Railway,no,18.99568,72.83027560000001,PL,Mumbai Lower Parel,Mumbai Suburban,Maharashtra,0
332,630743879,Diva Junction,station,station,DIVA,IR,no,19.188756400000003,73.0414169,DIVA,Diva,Thane,Maharashtra,2
333,631579580,Grant Road,station,station,GTR,Mumbai Suburban Railway,no,18.963354900000002,72.81582610000001,GTR,Mumbai Grant Road,Mumbai Suburban,Maharashtra,0
334,632050796,Delhi Cantonment,station,station,DEC,Indian Railways,no,28.611709400000002,77.11566350000001,DEC,Delhi Cantt,New Delhi,Delhi,76
335,632342238,Wadala Depot,station,station,,,,19.038824400000003,72.87402490000001,,,,,
336,632358105,Karjat,station,station,KJT,IR,no,18.9099653,73.3209629,KJT,Karjat,Raigad,Maharashtra,68
337,634317628,Junagadh Junction,station,station,JND,IR,no,21.5294132,70.4578106,JND,Junagadh Jn,Junagadh,Gujarat,20
338,634336690,Visavadar Junction,station,station,VSW,IR,no,21.340240100000003,70.7557328,VSW,Visavadar,Junagadh,Gujarat,0
339,634346965,Gondal,station,station,GDL,IR,no,21.9721823,70.7955235,GDL,Gondal,Rajkot,Gujarat,20
340,632337506,Chembur,station,station,,,,19.0612128,72.89759090000001,,,,,
341,632340589,Bhakti Park,station,station,,,,19.028972,72.8775722,,,,,
342,651800191,Baghajatin,station,station,BGJT,IR,,22.4828516,88.38666330000001,BGJT,Bagha Jatin,Kolkata,West Bengal,0
343,651805730,Ballygunge Junction,station,station,BLN,IR,,22.5191616,88.37219230000001,BLN,Ballygunge Jn,Kolkata,West Bengal,2
344,653938640,Maddur,station,station,MAD,IR,no,12.604671100000001,77.04969960000001,MAD,Maddur,Mandya,Karnataka,27
345,654125698,Alnavar Junction,station,station,LWR,IR,no,15.424511200000001,74.73830260000001,LWR,Alnavar Jn,Dharwad,Karnataka,25
346,654130310,Kundgol,station,station,KNO,IR,no,15.258882700000001,75.2500447,KNO,Kundgol,Dharwad,Karnataka,0
347,654132674,Ranebennuru,station,station,RNR,IR,no,14.625888000000002,75.63572450000001,RNR,Ranibennur,Haveri,Karnataka,37
348,654140148,Sambre,station,station,SXB,IR,no,15.8843177,74.5772092,SXB,Sambre,Belagavi,Karnataka,0
349,654163114,Bhavani Nagar,station,station,BVNR,IR,no,17.1569206,74.31332830000001,BVNR,Bhavani Nagar,Sangli,Maharashtra,2
350,654163137,Takari,station,station,TKR,IR,no,17.1330025,74.35822850000001,TKR,Takari,Sangli,Maharashtra,10
351,654165845,Shirvade,station,station,SIW,IR,no,17.3608896,74.1577118,SIW,Shirravde,Satara,Maharashtra,1
352,654165893,Targaon,station,station,TAZ,IR,,17.5143166,74.15620960000001,TAZ,Targaon,Satara,Maharashtra,4
353,654165911,Karad,station,station,KRD,IR,no,17.309634300000003,74.21686530000001,KRD,Karad,Satara,Maharashtra,34
354,654165958,Satara,station,station,STR,IR,no,17.688335900000002,74.06318350000001,STR,Satara,Satara,Maharashtra,42
355,654209479,Bhanapur,station,station,BNP,IR,no,15.3865703,76.03897090000001,BNP,Bhanapur,Koppal,Karnataka,4
356,655264344,Guledgudda Road,station,station,GED,IR,no,16.067305400000002,75.694556,GED,Guledagudda Rd,Bagalkot,Karnataka,6
357,655264380,Bagalkot,station,station,BGK,IR,no,16.1793224,75.6999315,BGK,Bagalkot,Bagalkot,Karnataka,22
358,655290802,Almatti,station,station,LMT,IR,no,16.345045900000002,75.9012249,LMT,Almatti,Vijayapura,Karnataka,14
359,654096682,Kokpara,station,station,KKPR,IR,no,22.4747948,86.634545,KKPR,Kokpara,Purbi Singhbhum,Jharkhand,0
360,654096688,Chakulia,station,station,CKU,IR,no,22.4784295,86.7219072,CKU,Chakulia,Purbi Singhbhum,Jharkhand,16
361,659537076,Chitradurga,station,station,CTA,IR,no,14.2307965,76.3864729,CTA,Chitradurg,Chitradurga,Karnataka,4
362,660147566,Latur Railway Station,station,station,LUR,IR,no,18.429456300000002,76.55579730000001,LUR,Latur,Latur,Maharashtra,24
363,658495933,Neral,station,station,NRL,IR,no,19.0274308,73.31843690000001,NRL,Neral,Raigad,Maharashtra,3
364,663755930,Shastri Park,station,station,,Delhi Metro,,28.6684339,77.2505301,,,,,
365,663758609,Seelampur,station,station,,Delhi Metro,,28.669816500000003,77.2668137,,,,,
366,663758748,Welcome (Red Line),station,station,,Delhi Metro,,28.671752400000003,77.2778548,,,,,
367,663758998,Shahdara,station,station,,Delhi Metro,,28.6734298,77.28988580000001,,,,,
368,663759047,Delhi Shahdara Junction,station,station,DSA,IR,no,28.6734557,77.2922087,DSA,Delhi Shahdara,East,Delhi,24
369,663759851,Jhilmil,station,station,,Delhi Metro,,28.675719700000002,77.3123949,,,,,
370,663760328,Vivek Vihar,station,station,VVB,IR,no,28.6731908,77.31829470000001,VVB,Viveka Vihar,Shahadra,Delhi,1
371,663761411,Shastri Nagar,station,station,,Delhi Metro,,28.670088500000002,77.18185890000001,,,,,
372,663761428,Inderlok (Red Line),station,station,,Delhi Metro,,28.6735891,77.17034670000001,,,,,
373,663761505,Kanhaiya Nagar,station,station,,Delhi Metro,,28.6824082,77.16477540000001,,,,,
374,663762151,Keshav Puram,station,station,,Delhi Metro,,28.688926400000003,77.1616833,,,,,
375,663762964,Netaji Subhash Place (Red Line),station,station,,Delhi Metro,,28.696048500000003,77.1524856,,,,,
376,663765153,Pitam Pura,station,station,,Delhi Metro,,28.7032676,77.1322497,,,,,
377,663766390,Rohini East,station,station,,Delhi Metro,,28.7075774,77.1259971,,,,,
378,663839267,Dakshineshwar,station,station,DAKE,IR,,22.653847600000002,88.3637563,DAKE,Dakshineswar,North 24 Parganas,West Bengal,16
379,663950711,Hooghly Ghat,station,station,HYG,IR,,22.9049023,88.39656310000001,HYG,Hooghly Ghat,Hooghly,West Bengal,2
380,663950712,Hooghly,station,station,HGY,IR,,22.905211400000002,88.3760639,HGY,Hooghly,Hooghly,West Bengal,0
381,664194936,Ujjain Junction,station,station,UJN,IR,no,23.1795347,75.781954,UJN,Ujjain Jn,Ujjain,Madhya Pradesh,122
382,664210317,Dewas Junction,station,station,DWX,IR,no,22.9780228,76.0519637,DWX,Dewas,Dewas,Madhya Pradesh,74
383,664256999,Maksi Junction,station,station,MKC,IR,no,23.252069000000002,76.1584869,MKC,Maksi,Shajapur,Madhya Pradesh,56
384,664455551,Dashnagar,station,station,DSNR,IR,no,22.597997300000003,88.30840380000001,DSNR,Dashnagar,Howrah,West Bengal,0
385,664455694,Ramrajatala,station,station,RMJ,IR,no,22.5886606,88.2966655,RMJ,Ramrajatala,Howrah,West Bengal,0
386,664459003,Serampore,station,station,SRP,IR,,22.7545791,88.3383079,SRP,Serampore,Hooghly,West Bengal,7
387,664467737,Bally,station,station,BLY,IR,,22.6550647,88.3403033,BLY,Bally,Howrah,West Bengal,0
388,664468000,Liluah,station,station,LLH,IR,,22.620902700000002,88.3394035,LLH,Liluah,Howrah,West Bengal,1
389,664468001,Belur,station,station,BEQ,IR,,22.6357323,88.33982230000001,BEQ,Belur,Howrah,West Bengal,0
390,664468968,Hind Motor,station,station,HMZ,IR,,22.6836507,88.3417989,HMZ,Hind Motor,Hooghly,West Bengal,0
391,664469183,Konnagar,station,station,KOG,IR,,22.70126,88.3425107,KOG,Konnagar,Hooghly,West Bengal,0
392,664469184,Rishra,station,station,RIS,IR,,22.7247059,88.34343530000001,RIS,Rishra,Hooghly,West Bengal,0
393,664469613,Singur,station,station,SIU,IR,,22.814569000000002,88.22907140000001,SIU,Singur,Hooghly,West Bengal,0
394,665114593,Uluberia,station,station,ULB,IR,no,22.4722227,88.0938448,ULB,Ulubaria,Howrah,West Bengal,10
395,665114595,Fuleswar,station,station,FLR,IR,no,22.4774357,88.1156438,FLR,Phuleswar,Howrah,West Bengal,0
396,665115013,Chengail,station,station,CGA,IR,no,22.486390500000002,88.1389532,CGA,Chengel,Howrah,West Bengal,0
397,665115034,Bauria,station,station,BVA,IR,no,22.5025222,88.16328820000001,BVA,Bauria Jn,Howrah,West Bengal,0
398,665115542,Nalpur,station,station,NALR,IR,no,22.529101,88.1860611,NALR,Nalpur,Howrah,West Bengal,0
399,665115614,Abada,station,station,ABB,IR,no,22.547871200000003,88.1995212,ABB,Abada,Howrah,West Bengal,0
400,665115755,Sankrail,station,station,SEL,IR,no,22.5623444,88.21044590000001,SEL,Sankrall,Howrah,West Bengal,0
401,666623896,Shrirangapattana,station,station,S,IR,no,12.424144100000001,76.67787320000001,S,Shrirangapatna,Mandya,Karnataka,12
402,667473810,Channarayapatna,station,station,CNPA,IR,no,12.8927148,76.39396380000001,CNPA,Channarayapatna,Hassan,Karnataka,12
403,670960045,Bantawal,station,station,BNTL,IR,no,12.878167300000001,75.0340919,BNTL,Bantawala,Dakshina Kannada,Karnataka,14
404,672647191,Solapur,station,station,SUR,IR,wlan,17.6645286,75.8934941,SUR,Solapur Jn,Solapur,Maharashtra,104
405,672726408,Minchnal,station,station,MNL,IR,no,16.9705608,75.8217834,MNL,Minchnal,Vijayapura,Karnataka,0
406,672865414,Basavana Bagewadi Road,station,station,BSRX,IR,no,16.4802988,75.82828710000001,BSRX,Bagevadi Rd,Vijayapura,Karnataka,10
407,674500805,Bharoli Junction,station,station,BHRL,IR,no,32.271537800000004,75.6163853,BHRL,Bharoli Junction,Shahid Bhagat Singh Nagar,Punjab,2
408,674500824,Pathankot Junction,station,station,PTK,IR,no,32.2722043,75.6477838,PTK,Pathankot,Pathankot,Punjab,18
409,674500841,Bari Brahman,station,station,BBMN,IR,no,32.6385839,74.9163996,BBMN,Bari Brahman,Samba,Jammu And Kashmir,8
410,674500992,Udhampur,station,station,MCTM,IR,no,32.9262335,75.1536205,,,,,
411,674690242,Khadki,station,station,KK,IR,no,18.5641718,73.84045330000001,KK,Khadki,Pune,Maharashtra,11
412,676474637,Palampur Himachal,station,station,PLMX,IR,no,32.081564,76.51549080000001,PLMX,Palampur Himachal,Kangra,Himachal Pradesh,0
413,678453419,Reddigudem,station,station,REM,IR,no,16.4418765,80.0505114,REM,Reddigudem,Guntur,Andhra Pradesh,0
414,678453460,Guntur Junction,station,station,GNT,IR,wlan,16.3010828,80.4431321,GNT,Guntur Jn,Guntur,Andhra Pradesh,79
415,678463116,Nalgonda,station,station,NLDA,IR,no,17.0606367,79.2832849,NLDA,Nalgonda,Nalgonda,Telangana,51
416,678727741,Palasdhari,station,station,PDI,IR,no,18.884354000000002,73.3208133,PDI,Palasdari,Raigad,Maharashtra,0
417,687187136,Yadgir,station,station,YG,IR,wlan,16.7446491,77.1297018,YG,Yadgir,Yadgir,Karnataka,59
418,687187467,Shahabad,station,station,SDB,IR,no,17.121932100000002,76.9433966,SDB,Shahabad,Kalaburagi,Karnataka,32
419,687777818,Nanjangud Town,station,station,NTW,IR,no,12.1220681,76.68434090000001,NTW,Nanjangud Town,Mysuru,Karnataka,2
420,691259390,Kasarwadi,station,station,KSWD,IR,no,18.6080927,73.8208678,KSWD,Kasar Wadi,Pune,Maharashtra,0
421,692865557,Tin Mile Hat,station,station,TMH,IR,,26.412521100000003,88.2568117,TMH,Tin Mile Hat,Uttar Dinajpur,West Bengal,0
422,692865780,Nijbari,station,station,NJB,IR,,26.6073148,88.3453394,NJB,Nijbari,Darjeeling,West Bengal,2
423,695074547,Heelalige,station,station,HLE,IR,no,12.8132888,77.7110736,HLE,Heelalige,Bangalore,Karnataka,6
424,695086486,Anekal Road,station,station,AEK,IR,no,12.723608,77.7105301,AEK,Anekal Road,Bangalore,Karnataka,6
425,700886180,Sewri,station,station,SVE,IR,no,18.998779600000002,72.85442180000001,SVE,Mumbai Sewri,Mumbai Suburban,Maharashtra,0
426,700886403,Cotton Green,station,station,CTGN,IR,,18.9871866,72.8438965,CTGN,Mumbai Cotton Green,Mumbai Suburban,Maharashtra,0
427,701554068,Nimbal,station,station,NBL,IR,no,17.1187954,75.86033690000001,NBL,Nimbal,Kalaburagi,Karnataka,6
428,706910280,Ratanpura,station,station,RTP,IR,,25.921907100000002,83.74442660000001,RTP,Ratanpura,Mau,Uttar Pradesh,4
429,706924007,Tiruchendur,station,station,TCN,IR,no,8.5024637,78.1173,TCN,Tiruchendur,Thoothukkudi,Tamil Nadu,2
430,706944470,Krishnapuram,station,station,KPU,IR,no,14.4959623,78.77431580000001,KPU,Krishnapuram,Y.S.R.,Andhra Pradesh,1
431,706944479,Hastavaramu,station,station,HAQ,IR,no,14.2189317,79.122011,HAQ,Hastavarmu,Y.S.R.,Andhra Pradesh,0
432,706944499,Razampeta,station,station,RJP,IR,no,14.1852984,79.1531123,RJP,Razampeta,Y.S.R.,Andhra Pradesh,45
433,706944559,Nellore,station,station,NLR,IR,wlan,14.4619736,79.9902272,NLR,Nellore,Sri Potti Sriramulu Nellore,Andhra Pradesh,190
434,706944591,Kadapa Junction,station,station,HX,IR,wlan,14.451567200000001,78.82927760000001,HX,Cuddapah,Y.S.R.,Andhra Pradesh,53
435,706967230,Kolar,station,station,KQZ,IR,no,13.123993,78.1329276,KQZ,Kolar,Kolar,Karnataka,1
436,707061042,Chamarajanagar,station,station,CMNR,IR,no,11.934600600000001,76.93282090000001,CMNR,Chamarajanagar,Chamarajanagara,Karnataka,2
437,707126837,Kabaka Puttur,station,station,KBPR,IR,no,12.768713900000002,75.2047244,KBPR,Kabakaputtur,Dakshina Kannada,Karnataka,14
438,707126938,Kadagaravalli,station,station,KGVL,IR,no,12.8380375,75.696014,KGVL,Kadagaravalli,Hassan,Karnataka,1
439,707127170,Yedekumeri,station,station,YDK,IR,no,12.823224600000001,75.66400110000001,YDK,Yedekumeri,Dakshina Kannada,Karnataka,1
440,707132579,Munirabad,station,station,MRB,IR,no,15.3080081,76.33638260000001,MRB,Munirabad,Koppal,Karnataka,10
441,707255911,Talaguppa,station,station,TLGP,IR,no,14.214310300000001,74.9144093,TLGP,Talguppa,Shivamogga,Karnataka,8
442,707547318,Ghagwal,station,station,GHGL,IR,no,32.5051699,75.2134193,GHGL,Ghagwal,Samba,Jammu And Kashmir,6
443,702181521,Nawandgi,station,station,NAW,IR,no,17.2163574,77.4271607,NAW,Nawandgi,Ranga Reddy,Telangana,4
444,702181539,Tandur,station,station,TDU,IR,no,17.2509364,77.58412630000001,TDU,Tandur,Vikarabad,Telangana,38
445,702374965,Bidar,station,station,BIDR,IR,no,17.9118862,77.5154346,BIDR,Bidar,Bidar,Karnataka,28
446,708697900,Sri Satya Sai Prashanthi Nilayam,station,station,SSPN,Indian Railways,,14.1610314,77.75887870000001,SSPN,Satya Sai P Nilayam,Anantapur,Andhra Pradesh,20
447,708875370,Tanguturu,station,station,TNR,IR,no,15.337745700000001,80.03352930000001,TNR,Tanguturu,Y.S.R.,Andhra Pradesh,6
448,708875652,Tettu,station,station,TTU,IR,no,15.0431202,80.0055942,TTU,Tettu,Prakasam,Andhra Pradesh,0
449,708920934,Machilipatnam,station,station,MTM,IR,no,16.1716602,81.1382098,MTM,Machelipatnam,Krishna,Andhra Pradesh,8
450,708920995,Anaparti,station,station,APT,IR,no,16.9362077,81.95380820000001,APT,Anaparti,East Godavari,Andhra Pradesh,22
451,708921070,Tadepalligudem,station,station,TDD,IR,wlan,16.8102437,81.52659200000001,TDD,Tadepalligudem,West Godavari,Andhra Pradesh,83
452,708921129,Kavutaram,station,station,KVM,IR,no,16.3286066,81.0694237,KVM,Kavutaram,Krishna,Andhra Pradesh,4
453,710027160,Khanapur Junction,station,station,KHNP,IR,no,17.9424998,77.3842209,KHNP,Khanapur Deccan,Bidar,Karnataka,0
454,712858959,Nagireddipalli,station,station,NRDP,IR,no,17.4236885,78.9405813,NRDP,Nagireddipalli,Yadadri Bhuvanagiri,Telangana,2
455,714799541,Siliguri Junction,station,station,SGUJ,IR,,26.7237854,88.4137127,SGUJ,Siliguri Jn,0,West Bengal,24
456,714908114,New Gitaldaha,station,station,NGTG,IR,,26.034926300000002,89.4889402,NGTG,New Gitaldaha Jn,Cooch Behar,West Bengal,0
457,714908169,Falakata,station,station,FLK,IR,,26.5392361,89.19144750000001,FLK,Falakata,Alipurduar,West Bengal,12
458,715070829,Dimapur,station,station,DMV,IR,,25.9068705,93.7284592,DMV,Dimapur,Dimapur,Nagaland,49
459,715071026,Kaithalkuchi,station,station,KTCH,IR,,26.450875900000003,91.34343650000001,KTCH,Kaithalkuchi,Nalbari,Assam,2
460,715137476,Amguri Junction,station,station,AGI,IR,,26.812938900000002,94.52415500000001,AGI,Amguri,Sivasagar,Assam,10
461,715137525,Simaluguri Junction,station,station,SLGR,IR,,26.917408400000003,94.7559815,SLGR,Simaluguri Jn,Sivasagar,Assam,31
462,715137787,Sarupathar,station,station,SZR,IR,,26.195162200000002,93.86216540000001,SZR,Sarupathar,Golaghat,Assam,14
463,715178218,Murkongselek,station,station,MZS,IR,,27.8311509,95.220213,MZS,Murkeongselek,Dhemaji,Assam,2
464,715200326,Pampur,station,station,PMPE,IR,no,33.998857,74.8949217,PMPE,Pampur,#N/A,,0
465,715299160,Kakapor,station,station,KAPE,IR,no,33.9531356,74.91353380000001,KAPE,Kakapore,#N/A,,0
466,713083187,Shrungavarapukota,station,station,SUP,IR,no,18.116932000000002,83.1331062,SUP,Shrungavarpukta,Vizianagaram,Andhra Pradesh,2
467,713083926,Vikarabad Junction,station,station,VKB,IR,no,17.3374029,77.90969290000001,VKB,Vikarabad Jn,Vikarabad,Telangana,50
468,713156473,Shri Chatrapati Shahu Maharaj Terminus,station,station,KOP,IR,no,16.7027362,74.23767980000001,KOP,C Shahu M Raj Kolhapur Term,Kolhapur,Maharashtra,26
469,713294650,Dhrangadhra Junction,station,station,DHG,IR,no,22.9880615,71.4777529,DHG,Dhrangdhra,Surendranagar,Gujarat,23
470,713294695,Okha,station,station,OKHA,IR,no,22.4716083,69.0765418,OKHA,Okha,Jamnagar,Gujarat,26
471,713294758,Viramgam Junction,station,station,VG,IR,no,23.1276285,72.053493,VG,Viramgam Jn,Ahmadabad,Gujarat,114
472,713294774,Mithapur,station,station,MTHP,IR,no,22.4117955,69.0089392,MTHP,Mithapur,Jamnagar,Gujarat,4
473,713294809,Joravar Nagar,station,station,JVN,IR,no,22.7128963,71.64099,JVN,Jorawarnagar Jn,Surendranagar,Gujarat,12
474,713294917,Surendranagar Junction,station,station,SUNR,IR,no,22.7443837,71.6289059,SUNR,Surendranagar,Surendranagar,Gujarat,82
475,713295075,Paddhari,station,station,PDH,IR,no,22.429795900000002,70.6057564,PDH,Padadhari,Rajkot,Gujarat,8
476,713295573,Bhatiya,station,station,BHTA,IR,no,22.088543,69.28007190000001,BHTA,Bhatiya,Devbhoomi Dwarka,Gujarat,8
477,717308013,Kirihrapur,station,station,KER,IR,,26.0437528,83.7354904,KER,Kirihrapur,Ballia,Uttar Pradesh,2
478,718549250,Bhitaura,station,station,BTO,,,28.4702811,79.3065928,BTO,Bhitaura,Bareilly,Uttar Pradesh,2
479,718549261,Bareilly Junction,station,station,BE,,,28.3381037,79.4102663,BE,Bareilly,Bareilly,Uttar Pradesh,171
480,718549537,Chikjajur Junction,station,station,JRU,IR,no,14.1238212,76.1398932,JRU,Chikjajur Jn,Chitradurga,Karnataka,12
481,718549544,Tisua,station,station,TSA,IR,,28.135833400000003,79.58618320000001,TSA,Tisua,Bareilly,Uttar Pradesh,2
482,718579231,Dighwara,station,station,DGA,,,25.744143,85.0038765,DGA,Dighwara,Saran,Bihar,32
483,718624754,Rayagada,station,station,RGDA,IR,,19.1753646,83.41068,RGDA,Rayagada,Rayagada,Odisha,50
484,718625144,Chintalpalli,station,station,CLE,IR,no,17.914394700000003,79.7021653,CLE,Chintalpalli,Warangal Rural,Telangana,2
485,718673507,Kesamudram,station,station,KDM,IR,no,17.6862457,79.8969833,KDM,Kesamudram,Mahabubabad,Telangana,20
486,718673509,Nekkonda,station,station,NKD,IR,no,17.794897600000002,79.80454250000001,NKD,Nekonda,Warangal Rural,Telangana,9
487,718673527,Garla,station,station,GLA,IR,no,17.4862118,80.13956370000001,GLA,Garla,Mahabubabad,Telangana,4
488,718916832,Itarsi Junction,station,station,ET,IR,wlan,22.6085628,77.76707,ET,Itarsi Jn,Hoshangabad,Madhya Pradesh,320
489,718917253,Sevaliya,station,station,SVL,IR,no,22.808615300000003,73.3477917,SVL,Sevaliya,Kheda,Gujarat,0
490,718973693,Bir,station,station,BIR,IR,no,22.0528708,76.5471648,BIR,Bir,Khandwa,Madhya Pradesh,2
491,718974446,Mathela,station,station,MTA,Indian Railways,no,21.878790900000002,76.38910960000001,MTA,Mathela,Khandwa,Madhya Pradesh,0
492,719052264,Batala Junction,station,station,BAT,IR,no,31.821405000000002,75.19455260000001,BAT,Batala Jn,Gurdaspur,Punjab,14
493,719052307,Gurdaspur,station,station,GSP,IR,no,32.043626,75.41994030000001,GSP,Gurdaspur,Gurdaspur,Punjab,12
494,719061653,Pathankot Cantonment,station,station,PTKC,IR,no,32.259377900000004,75.6365359,PTKC,Pathankot Cantt,Pathankot,Punjab,89
495,719077047,Jogighopa,station,station,JPZ,IR,,26.240383,90.5754591,JPZ,Jogighopa,Bongaigaon,Assam,2
496,719077075,Abhayapuri,station,station,AYU,IR,,26.356921300000003,90.6421552,AYU,Abhayapuri Assam,Bongaigaon,Assam,2
497,720609887,Kulti,station,station,ULT,IR,,23.738141900000002,86.84851470000001,ULT,Kulti,Paschim Bardhaman,West Bengal,14
498,720609910,Chhota Ambana,station,station,CAM,IR,,23.762090200000003,86.5725675,CAM,Chhota Ambana,Dhanbad,Jharkhand,2
499,720622565,Fazilka Junction,station,station,FKA,IR,no,30.408684400000002,74.02679400000001,FKA,Fazilka,Fazilka,Punjab,4
500,720622589,Firozpur City Junction,station,station,FZP,IR,no,30.9621029,74.6012663,FZP,Firozpur City,Ferozepur,Punjab,2
501,720630409,Khem Karan,station,station,KEMK,IR,no,31.139782500000003,74.55345940000001,KEMK,Khem Karan,Tarn Taran,Punjab,0
502,720630418,Tarn Taran Junction,station,station,TTO,IR,no,31.4550382,74.93226390000001,TTO,Tarn Taran,Amritsar,Punjab,0
503,717312072,Makkapeta,station,station,MAPA,IR,no,16.912749400000003,80.18939540000001,,,,,
504,717322357,Akola,station,station,AK,IR,no,20.7227763,77.0052993,AK,Akola Jn,Akola,Maharashtra,126
505,726202495,Jangaon,station,station,ZN,IR,no,17.7240313,79.1537103,ZN,Jangaon,Jangaon,Telangana,37
506,726283907,Giddalur,station,station,GID,IR,no,15.379383,78.926331,GID,Giddalur,Prakasam,Andhra Pradesh,16
507,726284289,Bhimavaram Town,station,station,BVRT,IR,no,16.547222700000003,81.5195597,BVRT,Bhimavaram Town,West Godavari,Andhra Pradesh,27
508,726284339,Pennada Agraharam,station,station,PAGM,IR,no,16.5418857,81.57808150000001,PAGM,Pennada Agraharam,West Godavari,Andhra Pradesh,0
509,726284568,Undi,station,station,UNDI,IR,no,16.580762800000002,81.4647544,UNDI,Undi,West Godavari,Andhra Pradesh,1
510,726284870,Kurichedu,station,station,KCD,IR,no,15.9125887,79.5720416,KCD,Kurichedu,Prakasam,Andhra Pradesh,2
511,726285052,Narasapur,station,station,NS,IR,no,16.4441905,81.6997881,NS,Narasapur,West Godavari,Andhra Pradesh,11
512,728164107,Kallayi,station,station,KUL,IR,no,11.2338188,75.7889536,KUL,Kallayi,Kozhikode,Kerala,0
513,728896591,Romana Albael Singh,station,station,RLS,IR,no,30.5112242,74.8502627,RLS,Romana Albel Singh,Faridkot,Punjab,0
514,729857056,Harpalpur,station,station,HPP,IR,no,25.2903048,79.3336402,HPP,Harpalpur,Varanasi,Uttar Pradesh,15
515,729857070,Bela Tal,station,station,BTX,IR,,25.2762955,79.5541195,BTX,Bela Tal,Mahoba,Uttar Pradesh,4
516,729896343,Khairar Junction,station,station,KID,IR,no,25.4519194,80.2363078,KID,Khairar Jn,Banda,Uttar Pradesh,1
517,731235290,Bharatkup,station,station,BTKP,IR,no,25.215590300000002,80.7714708,BTKP,Bharat Kup,Chitrakoot,Uttar Pradesh,4
518,732161989,Nizamabad Junction,station,station,NZB,IR,no,18.6787865,78.10351700000001,NZB,Nizamabad,Nizamabad,Telangana,44
519,732162115,Dichpalli,station,station,DHP,IR,no,18.6136945,78.1953039,DHP,Dichpalli,Nizamabad,Telangana,0
520,732162128,Gate Vanampalli,station,station,GVP,IR,no,17.4431605,77.8900682,GVP,Gate Vanampalli,Vikarabad,Telangana,0
521,732205621,Tuggali,station,station,TGL,IR,no,15.311038300000002,77.53024190000001,TGL,Tuggali,Kurnool,Andhra Pradesh,0
522,732205703,Rangapuram,station,station,RGM,IR,no,15.407163100000002,78.0599919,RGM,Rangapuram,Kurnool,Andhra Pradesh,0
523,732235112,Madanapalle Road,station,station,MPL,IR,no,13.6443583,78.5556648,MPL,Madanapalle Rd,Chittoor,Andhra Pradesh,11
524,732235218,Kalikiri,station,station,KCI,IR,no,13.643861500000002,78.8001909,KCI,Kallkiri,Chittoor,Andhra Pradesh,7
525,732565041,Hazur Sahib Nanded,station,station,NED,IR,no,19.1601795,77.30988210000001,NED,Huzur Sahib Nanded,Nanded,Maharashtra,88
526,732565114,Parbhani Junction,station,station,PBN,IR,no,19.2577028,76.7737511,PBN,Parbhani Jn,Parbhani,Maharashtra,64
527,732565263,Jalna,station,station,J,IR,no,19.8318228,75.89093390000001,J,Jalna,Jalna,Maharashtra,52
528,735126601,Tanakallu,station,station,TKU,IR,no,13.922490100000001,78.2010448,TKU,Tanakallu,Anantapur,Andhra Pradesh,0
529,735126605,Kadiri,station,station,KRY,IR,no,14.114614900000001,78.1653971,KRY,Kadiri,Anantapur,Andhra Pradesh,11
530,735126641,Nallacheruvu,station,station,NCU,IR,no,14.020814600000001,78.177784,NCU,Nallacheruvu,Anantapur,Andhra Pradesh,0
531,735126660,Mudigubba,station,station,MGB,IR,no,14.348838400000002,77.99608400000001,MGB,Mudigubba,Anantapur,Andhra Pradesh,5
532,735126664,Chinnekuntapalle,station,station,CCI,IR,no,14.443624600000001,77.8453626,CCI,Chinnekuntapali,Anantapur,Andhra Pradesh,0
533,735163197,Mudkhed Junction,station,station,MUE,IR,no,19.1480047,77.5097482,MUE,Mudkhed,Nanded,Maharashtra,48
534,736529198,Parli-Vaijnath,station,station,PRLI,IR,no,18.8527263,76.52482590000001,PRLI,Parli Vaijnath,Beed,Maharashtra,24
535,736529201,Manikpur Junction,station,station,MKP,IR,no,25.0632145,81.0940561,MKP,Manikpur Jn,Chitrakoot,Uttar Pradesh,73
536,736529371,Latur Road,station,station,LTRR,IR,no,18.5064442,76.8451251,LTRR,Latur Road,Latur,Maharashtra,34
537,736529997,Yedshi,station,station,YSI,IR,no,18.3175299,75.97685340000001,YSI,Yedeshi,Solapur,Maharashtra,2
538,736530896,Bargarh,station,station,BRG,IR,no,25.1638592,81.4503892,BRG,Bargarh,Chitrakoot,Uttar Pradesh,6
539,736531381,Gangakher,station,station,GNH,IR,no,18.973867000000002,76.7556002,GNH,Gangakher,Parbhani,Maharashtra,19
540,736554864,Hingoli Deccan,station,station,HNL,IR,no,19.7267119,77.1477651,HNL,Hingoli Deccan,Hingoli,Maharashtra,34
541,737678769,Chalisgaon Junction,station,station,CSN,IR,no,20.464020100000003,74.9990707,CSN,Chalisgaon Jn,Jalgaon,Maharashtra,42
542,737723661,Kalluru Junction,station,station,KLU,IR,no,14.925015100000001,77.5815391,KLU,Kalluru,Anantapur,Andhra Pradesh,2
543,737744285,Chikballapur,station,station,CBP,IR,no,13.427440500000001,77.7321433,CBP,Chik Ballapur,Chikkaballapura,Karnataka,1
544,738220569,Yerraguntla,station,station,YA,IR,no,14.643568100000001,78.5338218,YA,Yerraguntla,Y.S.R.,Andhra Pradesh,51
545,742439497,Karepalli,station,station,KRA,IR,no,17.510799300000002,80.27118850000001,KRA,Karepalli,Khammam,Telangana,2
546,742439507,Bhadrachalam Road,station,station,BDCR,IR,no,17.551291600000003,80.61445350000001,BDCR,Bhadrachalam Rd,Bhadradri Kothagudem,Telangana,4
547,742618091,Manuguru,station,station,MUGR,IR,no,17.898467800000002,80.81179010000001,MUGR,Manuguru,Bhadradri Kothagudem,Telangana,4
548,746433471,Kaptanganj,station,station,CPJ,IR,,26.925664700000002,83.6992202,CPJ,Kaptanganj Jn,Kushinagar,Uttar Pradesh,25
549,746433647,Khadda,station,station,KZA,IR,,27.1828043,83.8679522,KZA,Khada,Kushinagar,Uttar Pradesh,6
550,746433794,Maikalganj,station,station,MINJ,IR,,27.7173154,80.3378771,MINJ,Maikalganj,Lakhimpur Kheri,Uttar Pradesh,6
551,746433824,Bilpur,station,station,BLPU,IR,,28.081090200000002,79.6269927,BLPU,Bilpur,Bareilly,Uttar Pradesh,6
552,746433838,Garhmuktesar,station,station,GMS,IR,,28.780668000000002,78.07650980000001,GMS,Garhmuktesar,Hapur,Uttar Pradesh,13
553,746433926,Jarwal Road,station,station,JLD,IR,,27.1206715,81.5403893,JLD,Jarwal Road,Bahraich,Uttar Pradesh,18
554,746434030,Burhwal Junction,station,station,BUW,IR,,27.0862188,81.3896582,BUW,Burhwal,Barabanki,Uttar Pradesh,18
555,746434040,Valmikinagar Road,station,station,VKNR,IR,,27.195702100000002,84.0345776,VKNR,Valmikinagar Rd,Pashchim Champaran,Bihar,0
556,746434234,Baruachak,station,station,BRCK,IR,,27.1249085,82.04980730000001,BRCK,Barua Chak,Gonda,Uttar Pradesh,1
557,746434417,Babhnan,station,station,BV,IR,,26.937782300000002,82.501874,BV,Babhnan,Basti,Uttar Pradesh,22
558,746434440,Bagaha,station,station,BUG,IR,,27.130413100000002,84.0674887,BUG,Bagaha,Pashchim Champaran,Bihar,24
559,746434503,Biswan,station,station,BVN,,,27.4888359,80.9913959,BVN,Biswan,Sitapur,Uttar Pradesh,2
560,746434809,Bettiah,station,station,BTH,IR,,26.805388,84.5223565,BTH,Bettiah,Pashchim Champaran,Bihar,35
561,746434823,Majhowalia,station,station,MJL,IR,,26.8017651,84.6194102,MJL,Majhowlia,Pashchim Champaran,Bihar,6
562,746435064,Paniahwa,station,station,PNYA,IR,,27.1672797,83.9336222,PNYA,Paniahwa,Kushinagar,Uttar Pradesh,4
563,746435129,Ghughuli,station,station,GH,,,27.053769900000002,83.71387390000001,GH,Ghughuli,Maharajganj,Uttar Pradesh,4
564,746435137,Colonelganj,station,station,CLJ,,,27.137692,81.69366210000001,CLJ,Colonelganj,Gonda,Uttar Pradesh,16
565,746435293,Sagauli Junction,station,station,SGL,IR,,26.758518600000002,84.7397626,SGL,Sagauli Jn,Purba Champaran,Bihar,41
566,746435308,Nagaria Sadat,station,station,NRS,,,28.5500371,79.20601090000001,NRS,Nagaria Sadat,Bareilly,Uttar Pradesh,4
567,746435456,Hapur Junction,station,station,HPU,IR,,28.739239,77.7787139,HPU,Hapur,Hapur,Uttar Pradesh,63
568,746435562,Pipraich,station,station,PPC,IR,,26.8280867,83.53576000000001,PPC,Pipraich,Gorakhpur,Uttar Pradesh,6
569,738225624,Nadikudi Junction,station,station,NDKD,IR,no,16.5908336,79.72480350000001,NDKD,Nadikode,Guntur,Andhra Pradesh,25
570,738225631,Jaggayyapeta Town,station,station,JPTN,IR,no,16.891914800000002,80.11393310000001,,,,,
571,738225644,Rentachintala,station,station,RCA,IR,no,16.5458821,79.5525659,RCA,Rentachintala,Guntur,Andhra Pradesh,0
572,738268653,Hagari Bommanahalli,station,station,HBI,IR,no,15.049996700000001,76.2087101,HBI,Hagaribomanahalli,Ballari,Karnataka,0
573,738268811,Kotturu,station,station,KTY,IR,no,14.825462900000002,76.21236040000001,KTY,Kotturu,Ballari,Karnataka,0
574,738269167,Ranjitpura,station,station,RNJP,IR,no,15.0561105,76.5995537,RNJP,Ranajitpura,Ballari,Karnataka,0
575,738274019,Swamihalli,station,station,SMLI,IR,no,14.976150400000002,76.6089027,SMLI,Swamihalli,Ballari,Karnataka,0
576,738274431,Yeshwanthnagar,station,station,YTG,IR,no,15.0393103,76.50270830000001,YTG,Yeshwant Nagar,Ballari,Karnataka,0
577,747164265,Rourkela Junction,station,station,ROU,,,22.2277166,84.86315850000001,ROU,Rourkela,Sundargarh,Odisha,97
578,747164301,Amla Juncion,station,station,AMLA,IR,no,21.9195099,78.1227559,AMLA,Amla Jn,Betul,Madhya Pradesh,45
579,747164424,Guna Junction,station,station,GUNA,IR,no,24.640901500000002,77.31429080000001,GUNA,Guna,Guna,Madhya Pradesh,56
580,747164437,Ratlam New,station,station,RTMN,IR,no,23.339408600000002,75.0513306,RTMN,Ratlam New,Ratlam,Madhya Pradesh,2
581,747164567,Ratlam Junction,station,station,RTM,IR,no,23.340708000000003,75.05099340000001,RTM,Ratlam Jn,Ratlam,Madhya Pradesh,164
582,760197828,Darbhanga Junction,station,station,DBG,,,26.1545339,85.90769870000001,DBG,Darbhanga Jn,Darbhanga,Bihar,67
583,760197854,Tarsarai,station,station,TRS,IR,,26.1941695,86.01334700000001,TRS,Tarsarai,Darbhanga,Bihar,4
584,760197876,Angar Ghat,station,station,ARG,IR,,25.793381200000002,85.9098117,ARG,Angar Ghat,Samastipur,Bihar,2
585,760305363,Salmari,station,station,SRI,IR,,25.615731,87.83764020000001,SRI,Salmari,Katihar,Bihar,4
586,760305414,Meenapur,station,station,MENP,IR,,25.613918100000003,87.8029346,MENP,Meenapur,Katihar,Bihar,0
587,760305537,Kumedpur Junction,station,station,KDPR,IR,,25.428016300000003,87.8067067,KDPR,Kumedpur,Malda,West Bengal,19
588,760314657,Gunjaria,station,station,GEOR,IR,,26.2179547,88.1317056,GEOR,Gunjaria,Uttar Dinajpur,West Bengal,0
589,760360371,Kahalgaon,station,station,CLG,IR,,25.262578400000002,87.2341856,CLG,Kahalgaon,Bhagalpur,Bihar,24
590,760402787,Mokameh Junction,station,station,MKA,,,25.3921141,85.9141924,MKA,Mokameh Jn,Patna,Bihar,101
591,760403410,Kamarganj,station,station,KMGH,IR,,25.2372151,86.6873482,KMGH,Kamarganj,Munger,Bihar,0
592,746566731,Malda Town,station,station,MLDT,IR,,25.0159641,88.13057590000001,MLDT,Malda Town,Malda,West Bengal,118
593,746566749,Ib,station,station,IB,IR,no,21.816317,83.94900120000001,IB,Ib,Jharsuguda,Odisha,0
594,746566751,Balurghat,station,station,BLGT,IR,,25.2329435,88.7581098,BLGT,Balurghat,Dakshin Dinajpur,West Bengal,7
595,746566856,Brajarajnagar,station,station,BRJN,IR,no,21.8227382,83.9236777,BRJN,Brajrajnagar,Jharsuguda,Odisha,20
596,746629145,Satna Junction,station,station,STA,IR,no,24.5677309,80.82868140000001,STA,Satna,Satna,Madhya Pradesh,166
597,746639594,Bilaspur Junction,station,station,BSP,IR,no,22.0561021,82.17076680000001,BSP,Bilaspur Jn,Bilaspur,Chhatisgarh,133
598,746639605,Rewa,station,station,REWA,IR,no,24.5378101,81.251495,REWA,Rewa,Rewa,Madhya Pradesh,21
599,746951076,Dangari,station,station,DNGI,IR,,27.7093285,95.56803120000001,DNGI,Dangari,Tinsukia,Assam,0
600,746951089,Hansara,station,station,HNR,IR,,27.5542808,95.5395773,HNR,Hansara,Tinsukia,Assam,0
601,763549837,Shivajinagar,station,station,SVJR,IR,no,18.532591500000002,73.85131150000001,SVJR,Shivajinagar,Pune,Maharashtra,16
602,764159322,Yusufpur,station,station,YFP,IR,,25.637135,83.7476707,YFP,Yusufpur,Ghazipur,Uttar Pradesh,16
603,764404467,Gopalganj,station,station,GOPG,IR,,26.453762100000002,84.4352631,GOPG,Gopalganj,Gopalganj,Bihar,2
604,764404639,Barhaj Bazar,station,station,BHJ,IR,,26.2839241,83.73089990000001,BHJ,Barhaj Bazar,Deoria,Uttar Pradesh,0
605,764404786,Padrauna,station,station,POU,IR,,26.8975611,83.9827053,POU,Padrauna,Kushinagar,Uttar Pradesh,4
606,764404890,Ratan Sarai,station,station,RTU,,,26.3737661,84.5738668,RTU,Ratan Sarai,Gopalganj,Bihar,0
607,764404950,Maharajganj,station,station,MGZ,IR,,26.1082453,84.50729390000001,MGZ,Maharajganj,Siwan,Bihar,0
608,764404999,Duraundha Junction,station,station,DDA,IR,,26.0872314,84.45939410000001,DDA,Duraundha Jn,Siwan,Bihar,12
609,768289373,Masrakh Junction,station,station,MHC,IR,,26.1002639,84.809313,MHC,Masrakh,Saran,Bihar,2
610,768330860,Sitalpur,station,station,STLR,,,25.768291100000003,85.0358288,STLR,Sitalpur,Saran,Bihar,4
611,773621048,Sirhind Juntion,station,station,SIR,IR,no,30.623814000000003,76.38236470000001,SIR,Sirhind Jn,Fatehgarh Sahib,Punjab,54
612,773621053,Phagwara Junction,station,station,PGW,IR,no,31.2175763,75.76543840000001,PGW,Phagwara Jn,Kapurthala,Punjab,81
613,773621054,Mandi Gobindgarh,station,station,GVG,IR,no,30.6693384,76.2974678,GVG,Govindgarh,Fatehgarh Sahib,Punjab,10
614,774563966,Dharakhoh,station,station,DHQ,IR,no,22.0098397,77.9501204,DHQ,Dharakhoh,Betul,Madhya Pradesh,1
615,774564238,Ghoradongri,station,station,GDYA,IR,no,22.1256421,78.0021998,GDYA,Ghoradongri,Betul,Madhya Pradesh,41
616,774645274,Hinganghat,station,station,HGT,IR,no,20.542611,78.8331636,HGT,Hinganghat,Wardha,Maharashtra,35
617,774645305,Ramagundam,station,station,RDM,IR,no,18.763985700000003,79.43482610000001,RDM,Ramagundam,Peddapalli,Telangana,83
618,774645791,Wangapalli,station,station,WP,IR,no,17.5812463,78.98464530000001,WP,Wangapalli,Yadadri Bhuvanagiri,Telangana,2
619,774646160,Wihirgaon,station,station,VHGN,IR,no,19.725416900000003,79.44134840000001,VHGN,Wihirgaon,Chandrapur,Maharashtra,2
620,774646420,Wardha Junction,station,station,WR,IR,no,20.732956400000003,78.59526100000001,WR,Wardha Jn,Wardha,Maharashtra,79
621,774646460,Warora,station,station,WRR,IR,no,20.2441514,79.01005880000001,WRR,Warora,Chandrapur,Maharashtra,19
622,775174481,Palsi,station,station,PLV,IR,no,17.8120622,74.11145040000001,PLV,Palsi,Satara,Maharashtra,0
623,779388997,Kalol Junction,station,station,KLL,IR,no,23.243668300000003,72.503355,KLL,Kalol Jn,Gandhinagar,Gujarat,6
624,781951108,Bonakalu,station,station,BKL,IR,no,17.0293599,80.263411,BKL,Bona Kalu,Khammam,Telangana,4
625,784013009,Sohawal,station,station,SLW,,,26.753045200000003,81.98311120000001,SLW,Sohwal,Ayodhya,Uttar Pradesh,11
626,784189320,Amethi,station,station,AME,IR,,26.1528737,81.8061035,AME,Amethi,Amethi,Uttar Pradesh,49
627,784366360,Bitroi,station,station,BTRI,,,27.980030300000003,78.89718760000001,BTRI,Bitrol,Budaun,Uttar Pradesh,2
628,784500821,Achhnera Junction,station,station,AH,IR,no,27.1815901,77.75817590000001,AH,Achhnera Jn,Agra,Uttar Pradesh,47
629,784500837,Gumthal,station,station,GTF,,,28.4968536,78.7581983,GTF,Gumthal,Moradabad,Uttar Pradesh,0
630,784501019,Rajghat Narora,station,station,RG,IR,,28.2361806,78.3540816,RG,Rajghat Narora,Bulandshahr,Uttar Pradesh,2
631,784501180,Chandausi Junction,station,station,CH,,,28.459505500000002,78.7783211,CH,Chandausi Jn,Sambhal,Uttar Pradesh,27
632,790920249,Mathura Junction,station,station,MTJ,IR,wlan,27.4801125,77.67375960000001,MTJ,Mathura Jn,Mathura,Uttar Pradesh,189
633,794061518,Hijli,station,station,HIJ,IR,no,22.3196993,87.3193294,HIJ,Hijilli,Paschim Medinipur,West Bengal,36
634,794141612,Pichkurir Dhal,station,station,PCQ,IR,,23.5454784,87.7207041,PCQ,Pichkurirdhal,Purba Bardhaman,West Bengal,0
635,794150286,Gubbi,station,station,GBB,IR,,13.321408300000002,76.93875680000001,GBB,Gubbi,Tumakuru,Karnataka,0
636,794327598,Birpurusottampur,station,station,BRST,IR,no,19.990866200000003,85.8063348,BRST,Bir Purushottampur,Puri,Odisha,1
637,794350278,Odha,station,station,ODHA,IR,no,20.0177954,73.91323700000001,ODHA,Odha,Nashik,Maharashtra,0
638,794350354,Nashik Road,station,station,NK,IR,no,19.948058200000002,73.8420837,NK,Nasik Road,Nashik,Maharashtra,135
639,794350423,Lahavit,station,station,LT,IR,no,19.8228912,73.7848926,LT,Lahavit,Nashik,Maharashtra,0
640,794374999,Puntamba Junction,station,station,PB,IR,no,19.761445000000002,74.6219664,PB,Puntamba,Ahmednagar,Maharashtra,19
641,794375040,Sainagar Shirdi,station,station,SNSI,IR,,19.7805998,74.4806623,SNSI,Sainagar Shirdi,Ahmednagar,Maharashtra,26
642,794526508,Rahuri,station,station,RRI,IR,no,19.4135394,74.67739130000001,RRI,Rahuri,Ahmednagar,Maharashtra,0
643,794526614,Taklimiya,station,station,TKMY,IR,no,19.4577987,74.6791353,TKMY,Taklimiya,Ahmednagar,Maharashtra,0
644,794526617,Padhegaon,station,station,PDGN,IR,no,19.5373029,74.6923237,PDGN,Padhegaon,Ahmednagar,Maharashtra,0
645,795583898,Matari,station,station,MRQ,IR,,23.840566300000003,86.23910740000001,MRQ,Matari,Dhanbad,Jharkhand,0
646,795583901,Sedam,station,station,SEM,Indian Railways,no,17.1812073,77.2856943,SEM,Seram,Kalaburagi,Karnataka,24
647,795583944,Sonardih,station,station,SZE,IR,,23.790812600000002,86.2639197,SZE,Sonardih,Dhanbad,Jharkhand,2
648,795583962,Radhagaon,station,station,RDF,IR,,23.5975214,86.0892487,RDF,Radhagaon,Bokaro,Jharkhand,0
649,795584009,Bokaro Steel City,station,station,BKSC,,wlan,23.6579595,86.08391610000001,BKSC,Bokaro Steel City,Bokaro,Jharkhand,60
650,795709981,Bhaga,station,station,VAA,IR,,23.7236714,86.40574140000001,VAA,Bhaga Jn,Dhanbad,Jharkhand,2
651,797047363,Santaldih,station,station,SNTD,,,23.596624300000002,86.48330990000001,SNTD,Santaldih,Purulia,West Bengal,6
652,797047417,Sijua,station,station,SJA,IR,,23.7900226,86.3301703,SJA,Sijua,Dhanbad,Jharkhand,0
653,797047501,Pradhankhunta Junction,station,station,PKA,IR,,23.772810800000002,86.5158772,PKA,Pradhankhunta,Dhanbad,Jharkhand,2
654,797789029,Jogeswar Bihar,station,station,JGBR,IR,,23.7455241,85.6264647,JGBR,Jogeshwar Bihar,Ramgarh,Jharkhand,0
655,797789434,Bokaro Thermal,station,station,BKRO,IR,,23.7867032,85.87976950000001,BKRO,Bokaro Thermal,Bokaro,Jharkhand,4
656,798036064,Rukni Junction,station,station,RUI,IR,,23.5527863,86.5478988,RUI,Rukni,Purulia,West Bengal,0
657,802251157,Barnala,station,station,BNN,IR,no,30.371036500000002,75.5498955,BNN,Barnala,Barnala,Punjab,20
658,806414529,Madhupur Junction,station,station,MDP,IR,,24.2709577,86.64219960000001,MDP,Madhupur Jn,Deoghar,Jharkhand,110
659,806414717,Giridih,station,station,GRD,IR,,24.181771400000002,86.3145365,GRD,Giridih,Giridih,Jharkhand,0
660,806414764,Baidyanathdham,station,station,BDME,IR,,24.4889571,86.69272240000001,BDME,Baidyanath Dham,Deoghar,Jharkhand,0
661,806415348,Nalanda,station,station,NLD,,,25.122738700000003,85.46313,NLD,Nalanda,Nalanda,Bihar,6
662,806415556,Chittranjan,station,station,CRJ,IR,,23.8565541,86.8794101,CRJ,Chittaranjan,Paschim Bardhaman,West Bengal,87
663,806415646,Waris Aleganj,station,station,WRS,IR,,25.0162753,85.6429126,WRS,Waris Aleganj,Nawada,Bihar,4
664,806415701,Rajgir,station,station,RGD,,,25.032700600000002,85.4150197,RGD,Rajgir,Nalanda,Bihar,6
665,806415741,Sheikpura,station,station,SHK,,,25.131980700000003,85.85335280000001,SHK,Sheikpura,Sheikhpura,Bihar,4
666,806415777,Jhajha,station,station,JAJ,,,24.772857600000002,86.38629970000001,JAJ,Jhajha,Jamui,Bihar,107
667,806415817,Jasidih Junction,station,station,JSME,IR,,24.5152477,86.6441571,JSME,Jasidih Jn,Deoghar,Jharkhand,119
668,806416107,Paraiya,station,station,PRY,IR,,24.809343900000002,84.85108290000001,PRY,Paraiya,Gaya,Bihar,2
669,806416201,Paharpur,station,station,PRP,IR,,24.6244194,85.2065737,PRP,Paharpur,Gaya,Bihar,12
670,806416957,Nawadah,station,station,NWD,IR,,24.885889600000002,85.54812550000001,NWD,Nawadih,Nawada,Bihar,8
671,806437684,Pawapuri Road,station,station,POE,IR,,25.159610800000003,85.51170160000001,POE,Pawapuri Road Halt,Nalanda,Bihar,6
672,806437709,Bihar Sharif Junction,station,station,BEHS,IR,,25.2032668,85.5395233,BEHS,Bihar Sharif,Nalanda,Bihar,6
673,806482773,Fungo Halt,station,station,FNO,IR,,25.6186921,86.60437560000001,FNO,Fungo Halt,Khagaria,Bihar,0
674,806482957,Jaynagar,station,station,JYG,IR,,26.590277500000003,86.1356516,JYG,Jaynagar,Madhubani,Bihar,26
675,806505953,Gangarampur,station,station,GRMP,,,25.3901866,88.5162744,GRMP,Gangarampur,Dakshin Dinajpur,West Bengal,7
676,806505956,Radhikapur,station,station,RDP,,,25.643115700000003,88.44779340000001,RDP,Radhikapur,Uttar Dinajpur,West Bengal,4
677,806523591,Babina,station,station,BAB,IR,no,25.239268900000003,78.4536357,BAB,Babina,Jhansi,Uttar Pradesh,23
678,806523896,Bina Malkhedi,station,station,MAKR,IR,no,24.170509000000003,78.22352140000001,MAKR,Malkheri,Sagar,Madhya Pradesh,24
679,806523951,Ruthiyai Junction,station,station,RTA,IR,no,24.534632100000003,77.1798921,RTA,Ruthiyai,Guna,Madhya Pradesh,36
680,806523964,Saugor,station,station,SGO,IR,no,23.8477612,78.7433318,SGO,Saugor,Sagar,Madhya Pradesh,81
681,806524070,Agasod,station,station,AGD,IR,no,24.2339629,78.21762030000001,AGD,Agasod,Sagar,Madhya Pradesh,0
682,806585219,Dahod,station,station,DHD,IR,no,22.8439297,74.252386,DHD,Dahod,Dahod,Gujarat,86
683,806585439,Piplod Junction,station,station,PPD,IR,no,22.819221900000002,73.9102459,PPD,Piplod Jn,Dahod,Gujarat,6
684,806842027,Karjara,station,station,KRJR,,,24.8089492,85.15322540000001,KRJR,Karjara,Gaya,Bihar,0
685,806842041,Mandar Hill,station,station,MDLE,,,24.8060851,87.02634540000001,MDLE,Mandar Hill,Banka,Bihar,2
686,807827199,Jakhal Junction,station,station,JHL,IR,no,29.803082000000003,75.8207927,JHL,Jakhal Jn,Fatehabad,Haryana,39
687,807827232,Malerkotla,station,station,MET,IR,no,30.515830100000002,75.8733835,MET,Malerkotla,Sangrur,Punjab,17
688,807827293,Mansa,station,station,MSZ,IR,no,29.988294000000003,75.40411250000001,MSZ,Mansa,Mansa,Punjab,16
689,807827427,Lehra Gaga,station,station,LHA,IR,no,29.9381957,75.81020260000001,LHA,Lehra Gaga,Sangrur,Punjab,7
690,807827473,Sangrur,station,station,SAG,IR,no,30.242400600000003,75.8303715,SAG,Sangrur,Sangrur,Punjab,27
691,809560393,Mukerian,station,station,MEX,IR,no,31.942050000000002,75.6121906,MEX,Mukerian,Hoshiarpur,Punjab,25
692,809560543,Dasuya,station,station,DZA,IR,no,31.8084574,75.6580069,DZA,Dasuya,Hoshiarpur,Punjab,29
693,809560549,Sidhwan,station,station,SWG,IR,no,31.097411400000002,75.53737860000001,SWG,Sidhwan,Jalandhar,Punjab,0
694,809560603,Nakodar Junction,station,station,NRO,IR,no,31.111861,75.4765718,NRO,Nakodar Jn,Jalandhar,Punjab,2
695,809863808,Jalalabad,station,station,JBD,IR,no,30.607461500000003,74.26917110000001,JBD,Jalalabad,Fazilka,Punjab,2
696,811256224,Kot Kapura Junction,station,station,KKP,IR,yes,30.5798513,74.81740190000001,KKP,Kot Kapura,Faridkot,Punjab,16
697,811256261,Muktsar,station,station,MKS,IR,no,30.4787992,74.51470590000001,MKS,Muktsar,Sri Muktsar Sahib,Punjab,2
698,811343788,Satnali,station,station,STNL,IR,no,28.381713700000002,75.965843,STNL,Satnali,Mahendragarh,Haryana,6
699,811343831,Ratangarh Junction,station,station,RTGH,IR,no,28.068958900000002,74.6246438,RTGH,Ratangarh Jn,Churu,Rajasthan,30
700,811343856,Mahendragarh,station,station,MHRG,IR,no,28.2808597,76.1480985,MHRG,Mahendragarh,Mahendragarh,Haryana,16
701,811343869,Sardarshahr,station,station,SRDR,IR,no,28.437888100000002,74.47851030000001,SRDR,Sardarshahr,Churu,Rajasthan,0
702,811343892,Rewari Junction,station,station,RE,IR,no,28.202482200000002,76.6108607,RE,Rewari,Rewari,Haryana,81
703,811361700,Ringas Junction,station,station,RGS,IR,no,27.3731541,75.56320860000001,RGS,Ringas Jn,Sikar,Rajasthan,12
704,811412438,Chittaurgarh Junction,station,station,COR,IR,no,24.8760203,74.62327140000001,COR,Chittaurgarh,Chittorgarh,Rajasthan,58
705,811412483,Chanderiya Junction,station,station,CNA,IR,no,24.9381421,74.6289998,CNA,Chanderiya,Chittorgarh,Rajasthan,17
706,811412560,Gurla Junction,station,station,GQL,IR,no,25.271244600000003,75.8863961,GQL,Gurla,Bundi,Rajasthan,4
707,811425024,Bilara,station,station,BARA,IR,no,26.1861475,73.70000780000001,BARA,Bilara,Jodhpur,Rajasthan,0
708,811425118,Bhawi,station,station,BCW,IR,no,26.2254688,73.6170125,BCW,Bhawi,Jodhpur,Rajasthan,0
709,811572494,Manihari,station,station,MHI,IR,,25.3431612,87.62024240000001,MHI,Manihari,Katihar,Bihar,4
710,823469291,Kasara,station,station,KSRA,IR,no,19.648232500000002,73.47358870000001,KSRA,Kasara,Thane,Maharashtra,19
711,823469588,Asangaon,station,station,ASO,IR,no,19.439961500000003,73.30814620000001,ASO,Asangaon,Thane,Maharashtra,0
712,823469603,Atgaon,station,station,ATG,IR,no,19.5028985,73.3287332,ATG,Atgaon,Thane,Maharashtra,0
713,823469674,Khardi,station,station,KE,IR,no,19.5802161,73.3938248,KE,Khardi,Thane,Maharashtra,0
714,823469932,Vasind,station,station,VSD,IR,no,19.406508900000002,73.2674683,VSD,Vasind,Thane,Maharashtra,0
715,828998873,Khoirabari,station,station,KBY,IR,,26.6030671,91.8121031,KBY,Khoirabari,Udalguri,Assam,2
716,828999020,Lilabari,station,station,LBI,IR,,27.2983121,94.0751195,LBI,Lilabari,Lakhimpur,Assam,2
717,828999092,North Lakhimpur,station,station,NLP,IR,,27.254431,94.1120339,NLP,North Lakhimpur,Lakhimpur,Assam,8
718,828999117,New Misamari,station,station,NMM,IR,,26.810895700000003,92.5773509,NMM,New Misamari,Sonitpur,Assam,4
719,828999190,Udalguri,station,station,ULG,IR,,26.744595800000003,92.0971834,ULG,Udalguri,Udalguri,Assam,10
720,828999196,Bindukuri,station,station,BKTB,IR,,26.708594700000003,92.7343537,BKTB,Bindukuri,Sonitpur,Assam,0
721,829869631,Mujnai,station,station,MJE,IR,,26.6932259,89.1895511,MJE,Mujnal,Jalpaiguri,West Bengal,0
722,829889273,New Maynaguri,station,station,NMX,IR,,26.5786085,88.8229099,NMX,New Maynaguri,Jalpaiguri,West Bengal,6
723,830039330,Sivok,station,station,SVQ,IR,,26.880391000000003,88.46917810000001,SVQ,Sivok,Darjeeling,West Bengal,2
724,830103537,শাহবাজপুর,station,station,LATU,,,24.804230800000003,92.2368618,,,,,
725,830243153,Katakhal Junction,station,station,KTX,IR,,24.835459500000002,92.626631,KTX,Katakhal Jn,Hailakandi,Assam,2
726,831175630,Golaghat Railway Station,station,station,GLGT,IR,no,26.5091053,93.9617671,GLGT,Golaghat,Golaghat,Assam,4
727,831207614,Jorhat Town,station,station,JTTN,IR,,26.750172900000003,94.21632770000001,JTTN,Jorhat Town,Jorhat,Assam,6
728,831304375,Rowta Bagan,station,station,RWTB,IR,,26.737346400000003,92.215175,RWTB,Rowta Bagan,Udalguri,Assam,4
729,831304440,Langting,station,station,LGT,IR,,25.497187200000003,93.1105601,LGT,Langting,Dima Hasao,Assam,0
730,831304708,Lumding Junction,station,station,LMG,IR,,25.7502262,93.17660470000001,LMG,Lumding Jn,Hojai,Assam,67
731,827249542,Palakollu,station,station,PKO,IR,no,16.5214129,81.717275,PKO,Palakollu,West Godavari,Andhra Pradesh,11
732,834463115,Baghoi Kusa,station,station,BHKH,IR,,24.840327100000003,84.46033650000001,BHKH,Baghoi Kusa,Aurangabad,Bihar,2
733,832464709,Silghat Town,station,station,SHTT,IR,,26.6074953,92.92995640000001,SHTT,Silghat Town,Nagaon,Assam,6
734,832590807,Mairabari,station,station,MBO,IR,,26.4513296,92.42582030000001,MBO,Mairabari,Morigaon,Assam,0
735,832590885,Raha,station,station,RAHA,IR,,26.2320327,92.5272443,RAHA,Raha,Nagaon,Assam,1
736,832590944,Senchoa Junction,station,station,SCE,IR,,26.311384500000003,92.6425956,SCE,Senchoa Jn,Nagaon,Assam,6
737,832590984,Chaparmukh Junction,station,station,CPK,IR,,26.203175,92.5118391,CPK,Chaparmukh Jn,Nagaon,Assam,47
738,832591007,Nagaon,station,station,NGAN,IR,,26.348055100000003,92.698018,NGAN,Nagaon,Nagaon,Assam,6
739,832591052,Haibargaon,station,station,HBN,IR,,26.3564809,92.672848,HBN,Haibargaon,Nagaon,Assam,0
740,832743028,Moranhat,station,station,MRHT,IR,,27.1827599,94.9193188,MRHT,Moranhat,Sivasagar,Assam,10
741,832808317,Tuli,station,station,TULI,IR,,26.736533400000003,94.6131009,TULI,Tuli,Mokokchung,,0
742,841763375,Dodballapur,station,station,DBU,IR,no,13.2796882,77.5505054,DBU,Dodballapur,Bangalore Rural,Karnataka,12
743,841999098,Bathinda Junction,station,station,BTI,IR,no,30.212756900000002,74.93308370000001,BTI,Bathinda Jn,Bathinda,Punjab,54
744,842949090,Magnesite Junction,station,station,MGSJ,IR,no,11.6947881,78.0974144,MGSJ,Magnesite Jn,Salem,Tamil Nadu,0
745,853082530,Mallasandra,station,station,MLSA,IR,no,13.3349714,77.015439,MLSA,Mallasandra,Tumakuru,Karnataka,0
746,853131485,Tumakuru,station,station,TK,IR,no,13.333899,77.10195800000001,TK,Tumkur,Tumakuru,Karnataka,63
747,893170355,James Street,station,station,JET,IR,no,17.4329515,78.4873218,JET,James Street,Hyderabad,Telangana,0
748,902351341,Sahibabad Junction,station,station,SBB,IR,no,28.674278400000002,77.3644349,SBB,Sahibabad,Ghaziabad,Uttar Pradesh,19
749,886161862,Hafeezpet,station,station,HFZ,IR,no,17.482399700000002,78.3630141,HFZ,Hafizpeta,Hyderabad,Telangana,2
750,906601303,Orai,station,station,ORAI,IR,no,25.982767900000002,79.4597648,ORAI,Orai,Jalaun,Uttar Pradesh,68
751,906601604,Lalpur,station,station,LLR,IR,no,26.318614500000002,79.9483814,LLR,Lalpur,Kanpur Dehat,Uttar Pradesh,4
752,907078033,Katni Junction,station,station,KTE,IR,no,23.834763300000002,80.4006981,KTE,Katni,Katni,Madhya Pradesh,140
753,907082996,Damoh,station,station,DMO,IR,no,23.836058700000002,79.4321389,DMO,Damoh,Damoh,Madhya Pradesh,77
754,907765926,Katni Murwara,station,station,KMZ,IR,no,23.8313686,80.3916466,KMZ,Katni Murwara,Katni,Madhya Pradesh,75
755,907773812,Madhavnagar Road,station,station,MDRR,IR,no,23.7872221,80.39440610000001,MDRR,Madhavnagar Roa,Katni,Madhya Pradesh,1
756,910326299,Karakbel,station,station,KKB,IR,no,22.9920078,79.34131210000001,KKB,Karak Bel,Narsinghpur,Madhya Pradesh,4
757,910326306,Bheraghat,station,station,BRGT,IR,no,23.1697783,79.79776550000001,BRGT,Bheraghat,Jabalpur,Madhya Pradesh,2
758,910326311,Pipariya,station,station,PPI,Indian Railways,no,22.7543115,78.3558763,PPI,Pipariya,Hoshangabad,Madhya Pradesh,98
759,910326329,Kachhpura,station,station,KEQ,IR,no,23.1707354,79.8988817,KEQ,Kachhpura,Jabalpur,Madhya Pradesh,1
760,910326348,Gosalpur,station,station,GSPR,IR,no,23.381734700000003,80.05918000000001,GSPR,Gosalpur,Jabalpur,Madhya Pradesh,8
761,910326352,Gadarwara,station,station,GAR,IR,no,22.9003732,78.7926881,GAR,Gadarwara,Narsinghpur,Madhya Pradesh,40
762,910326389,Sohagpur,station,station,SGP,IR,no,22.693794800000003,78.1948721,SGP,Sohagpur,Hoshangabad,Madhya Pradesh,16
763,910326397,Bankhedi,station,station,BKH,IR,no,22.7747128,78.533444,BKH,Bankhedi,Hoshangabad,Madhya Pradesh,8
764,910326413,Kareli,station,station,KY,IR,no,22.9322525,79.0666841,KY,Kareli,Narsinghpur,Madhya Pradesh,26
765,910326419,Narsinghpur,station,station,NU,IR,no,22.9431778,79.2142889,NU,Narsinghpur,Narsinghpur,Madhya Pradesh,79
766,910326425,Shridham,station,station,SRID,IR,no,23.0345654,79.4847835,SRID,Shridham,Narsinghpur,Madhya Pradesh,30
767,910326514,Dundi,station,station,DDCE,IR,no,23.557524800000003,80.2173229,DDCE,Dundi,Jabalpur,Madhya Pradesh,4
768,906600292,Tikaria,station,station,TKYR,IR,no,25.0005601,80.87469370000001,TKYR,Tikaria,Banda,Uttar Pradesh,1
769,910351631,Hoshangabad,station,station,NDPM,IR,no,22.752959800000003,77.71732610000001,,,,,
770,910356109,Budhni,station,station,BNI,IR,no,22.786886000000003,77.6814749,BNI,Budni,Sehore,Madhya Pradesh,2
771,910356438,Delhi Safdarjang,station,station,DSJ,IR,no,28.582203600000003,77.1862115,DSJ,Delhi Safdarjung,South West,Delhi,12
772,910356522,Sewa Nagar,station,station,SWNR,IR,no,28.5789548,77.22768860000001,SWNR,Sewa Nagar,South,Delhi,0
773,910356583,Okhla,station,station,OKA,IR,no,28.559475300000003,77.26562320000001,OKA,Okhla,East,Delhi,8
774,910549468,Hirdagarh,station,station,HRG,IR,no,22.1422333,78.5168853,HRG,Hirdagarh,Chhindwara,Madhya Pradesh,0
775,910550120,Chhindwara Junction,station,station,CWA,IR,no,22.0578229,78.953772,CWA,Chhindwara Jn,Chhindwara,Madhya Pradesh,2
776,910648800,Pendra Road,station,station,PND,IR,,22.7557672,81.8990005,PND,Pendra Road,Gaurela Pendra Marwahi,Chhatisgarh,49
777,910649003,Chirmiri,station,station,CHRM,IR,,23.1898407,82.3498026,CHRM,Chirmiri,Koriya,Chhatisgarh,1
778,910649559,Tilda-Neora,station,station,TLD,IR,no,21.5506694,81.7948676,TLD,Tilda,Raipur,Chhatisgarh,38
779,910650778,Bhatapara,station,station,BYT,IR,no,21.732135800000002,81.9458317,BYT,Bhatapara,Baloda Bazar,Chhatisgarh,78
780,910651036,Bijuri,station,station,BJRI,IR,,23.2512046,82.1196369,BJRI,Bijuri,Anuppur,Madhya Pradesh,5
781,910651690,Kotma,station,station,KTMA,,,23.202693200000002,81.9791065,KTMA,Kotma,Anuppur,Madhya Pradesh,5
782,910780882,Karonji,station,station,KJZ,IR,,23.278020100000003,82.9339193,KJZ,Karonji,Surguja,Chhatisgarh,2
783,910781008,Tiger Hill,station,station,TGG,IR,,23.240278800000002,82.3892976,TGG,Tiger Hill,Koriya,Chhatisgarh,0
784,910781098,Katora,station,station,KTO,IR,,23.307773800000003,82.680552,KTO,Katora,Koriya,Chhatisgarh,4
785,910781103,Darritola Junction,station,station,DTL,IR,,23.289333600000003,82.39574130000001,DTL,Darritola,Koriya,Chhatisgarh,2
786,910815992,Botad Junction,station,station,BTD,IR,no,22.1825073,71.6655674,BTD,Botad Jn,Botad,Gujarat,22
787,910816073,Limbdi,station,station,LM,IR,no,22.566000600000002,71.78994250000001,LM,Limbdi,Surendranagar,Gujarat,4
788,910816142,Dhola Junction,station,station,DLJ,IR,no,21.822648700000002,71.7396251,DLJ,Dhola Jn,Bhavnagar,Gujarat,20
789,913081055,Subzimandi,station,station,SZM,IR,no,28.668506800000003,77.20049350000001,SZM,Subzi Mandi,North East,Delhi,37
790,913095905,Delhi Junction,station,station,DLI,IR,wlan,28.660932000000003,77.2276494,DLI,Old Delhi,Central,Delhi,105
791,913485885,GTB Nagar,station,station,GTBR,Delhi Metro,,28.698133300000002,77.2063998,,,,,
792,913486329,Delhi Azadpur,station,station,DAZ,IR,no,28.703504100000004,77.17706290000001,DAZ,Delhi Azadpur,North East,Delhi,0
793,914644353,Dayabasti,station,station,DBSI,IR,no,28.667121700000003,77.17119000000001,DBSI,Daya Basti,North,Delhi,0
794,914644362,Patel Nagar,station,station,PTNR,IR,no,28.6598088,77.156957,PTNR,Patel Nagar,West,Delhi,2
795,915407469,Delhi Sarai Rohilla,station,station,DEE,Indian Railways,no,28.662751500000002,77.1852561,DEE,Delhi Sarai Rohilla,North West,Delhi,68
796,915522827,Sihor Junction,station,station,SOJN,IR,no,21.7245461,71.9569857,SOJN,Sihor Gujarat,Bhavnagar,Gujarat,12
797,915522905,Lunidhar,station,station,LDU,IR,no,21.715888900000003,71.08652190000001,LDU,Lunidhar,Amreli,Gujarat,0
798,915522926,Vavdi,station,station,VVD,IR,no,21.7188491,70.7524904,VVD,Vavdi,Amreli,Gujarat,0
799,915523017,Bhavnagar Terminus,station,station,BVC,IR,no,21.7808642,72.1413236,BVC,Bhavnagar Terminus,Bhavnagar,Gujarat,14
800,915523048,Kunkavav,station,station,KKV,IR,no,21.6530805,70.9744593,KKV,Kunkavav Jn,Amreli,Gujarat,0
801,915523098,Dhasa Junction,station,station,DAS,IR,no,21.7827419,71.518056,DAS,Dhasa Jn,Botad,Gujarat,6
802,918556145,Keshod,station,station,KSD,IR,no,21.2981273,70.25150190000001,KSD,Keshod,Junagadh,Gujarat,16
803,918556470,Somnath,station,station,SMNH,IR,no,20.895717400000002,70.4080467,SMNH,Somnath,Gir Somnath,Gujarat,8
804,918556903,Chorwad Road,station,station,CVR,IR,no,21.0539354,70.2902323,CVR,Chorvad Road,Junagadh,Gujarat,6
805,918557046,Kodinar,station,station,KODR,IR,no,20.7971703,70.6957211,KODR,Kodinar,Gir Somnath,Gujarat,0
806,918557259,Delvada,station,station,DVA,IR,no,20.7735574,71.0418496,DVA,Delvada,Gir Somnath,Gujarat,0
807,919494613,Fatehabad Chandrawatiganj Junction,station,station,FTD,IR,no,23.0110743,75.6735156,FTD,Fatehabad Chjn,Ujjain,Madhya Pradesh,14
808,919494786,Nauganwan,station,station,NGW,IR,no,23.249094000000003,75.1570636,NGW,Nauganwan,Ratlam,Madhya Pradesh,0
809,919522061,Arag,station,station,ARAG,IR,no,16.822554200000003,74.78826140000001,ARAG,Arag,Sangli,Maharashtra,4
810,919522120,Sulgare,station,station,SGRE,IR,no,16.893041,74.90390160000001,SGRE,Sulgare,Sangli,Maharashtra,4
811,919621691,Rupnagar,station,station,RPAR,IR,no,30.9725363,76.53315760000001,RPAR,Rupnagar,Rupnagar,Punjab,12
812,919621784,Nangal Dam,station,station,NLDM,IR,no,31.370774100000002,76.3735024,NLDM,Nangal Dam,Rupnagar,Punjab,12
813,919621830,Charkhi Dadri,station,station,CKD,IR,no,28.5993709,76.2805574,CKD,Charkhi Dadri,Charkhi Dadri,Haryana,4
814,919654491,Sitapur Junction,station,station,STP,IR,,27.5582321,80.6990129,STP,Sitapur,Sitapur,Uttar Pradesh,23
815,919678285,Kathgodam,station,station,KGM,IR,,29.266646,79.5466346,KGM,Kathgodam,Nainital,Uttarakhand,18
816,919678360,Haldwani Railway Station,station,station,HDW,IR,,29.2157328,79.5334253,HDW,Haldwani,Nainital,Uttarakhand,18
817,919678372,Tanakpur,station,station,TPU,IR,,29.0673789,80.1094626,TPU,Tanakpur,Champawat,Uttarakhand,7
818,915605108,Mahuva Junction,station,station,MHV,IR,no,21.094391700000003,71.7568456,MHV,Mahuva Jn,Bhavnagar,Gujarat,6
819,915605123,Rajula Junction,station,station,RLA,IR,no,21.103998800000003,71.4792058,RLA,Rajula Jn,Amreli,Gujarat,6
820,921345690,Bharuch Junction,station,station,BH,IR,no,21.7035151,72.9992471,BH,Bharuch Jn,Bharuch,Gujarat,146
821,920882336,Adarsh Nagar,station,station,ANDI,IR,no,28.714400800000003,77.1672884,ANDI,Adarsh Nagar Delhi,North West,Delhi,3
822,926952335,Tulsipur,station,station,TLR,IR,,27.5318766,82.4090082,TLR,Tulsipur,Balrampur,Uttar Pradesh,12
823,926974844,Bahraich,station,station,BRK,IR,,27.582109900000003,81.6073564,BRK,Bahraich,Bahraich,Uttar Pradesh,1
824,927232628,Nepalganj Road,station,station,NPR,IR,,28.011210300000002,81.6012106,NPR,Nepalganj Road,Bahraich,Uttar Pradesh,0
825,927873494,IGI Airport,station,station,APOT,Delhi Metro,,28.556462600000003,77.08669950000001,,,,,
826,927873510,Kalkaji Mandir,station,station,KJMD,Delhi Metro,,28.549478500000003,77.25909,,,,,
827,927873513,Dhaula Kuan,station,station,DKV,Delhi Metro,,28.5918719,77.16171580000001,,,,,
828,927931377,Bareilly City,station,station,BC,IR,,28.356201400000003,79.40317230000001,BC,Bareilly City,Bareilly,Uttar Pradesh,17
829,927997930,Izatnagar Junction,station,station,IZN,,,28.388852000000004,79.4214106,IZN,Izzatnagar,Bareilly,Uttar Pradesh,19
830,928006142,Sherganj,station,station,SNZ,IR,,28.375370500000002,79.8042521,SNZ,Sherganj,Pilibhit,Uttar Pradesh,0
831,928023324,Baghpat Road,station,station,BPM,IR,no,28.9573736,77.2720537,BPM,Bagpat Road,Baghpat,Uttar Pradesh,2
832,928023337,Khekra,station,station,KEX,IR,no,28.8713993,77.28896280000001,KEX,Khekra,Baghpat,Uttar Pradesh,2
833,937900545,Shri Mahabirji,station,station,SMBJ,IR,no,26.684716,76.9682743,SMBJ,Shri Mahabirji,Karauli,Rajasthan,26
834,937900550,Hindaun City,station,station,HAN,IR,no,26.7557873,77.0314809,HAN,Hindaun City,Karauli,Rajasthan,34
835,938409545,New Delhi Airport Express Terminal,station,station,NDI,Delhi Metro,,28.6424786,77.22311160000001,,,,,
836,944845341,Anand Vihar Terminal,station,station,ANVT,Indian Railways,no,28.648850900000003,77.31550030000001,ANVT,Anand Vihar Trm,East,Delhi,102
837,938653258,Bharatpur Junction,station,station,BTE,IR,no,27.2364861,77.4875907,BTE,Bharatpur Jn,Bharatpur,Rajasthan,88
838,938706047,Pilioda,station,station,PDZ,IR,no,26.605933200000003,76.8640963,PDZ,Pilioda,Sawai Madhopur,Rajasthan,1
839,938735525,Chhoti Odai,station,station,COO,IR,no,26.5588634,76.80534660000001,COO,Chhoti Odai,Sawai Madhopur,Rajasthan,1
840,938736299,Gangapur City,station,station,GGC,IR,no,26.4681809,76.72668110000001,GGC,Gangapur City,Sawai Madhopur,Rajasthan,50
841,938740629,Lalpur Umri,station,station,LRU,IR,no,26.4298107,76.6800127,LRU,Lalpur Umri,Sawai Madhopur,Rajasthan,0
842,940975619,Palam,station,station,PM,IR,no,28.585353,77.0924713,PM,Palam,South West,Delhi,12
843,941132747,Bijwasan,station,station,BWSN,IR,no,28.536958700000003,77.0512889,BWSN,Bijwasan,South West,Delhi,1
844,960296024,Dolavli,station,station,DLV,IR,no,18.8331631,73.32034440000001,DLV,Dolavali,Raigad,Maharashtra,0
845,960296252,Chowk,station,station,CHOK,IR,no,18.9025964,73.24025,CHOK,Chowk,Raigad,Maharashtra,2
846,962987530,Davanagere,station,station,DVG,IR,wlan,14.4679807,75.9195682,DVG,Davangere,Davanagere,Karnataka,57
847,963093130,Jagdalpur,station,station,JDB,IR,no,19.066551500000003,82.01390860000001,JDB,Jagdalpur,Bastar,Chhatisgarh,10
848,963094191,Jeypore,station,station,JYP,IR,no,18.896046000000002,82.55396640000001,JYP,Jeypore,Koraput,Odisha,10
849,963095546,Chatariput,station,station,CTS,IR,no,18.923225900000002,82.5901195,CTS,Chattriput,Koraput,Odisha,0
850,963098995,Maligura,station,station,MVG,IR,no,18.9535944,82.63882500000001,MVG,Maligura,Koraput,Odisha,0
851,963473439,Kirandul,station,station,KRDL,IR,no,18.6389296,81.2598722,KRDL,Kirandul,Dakshin Bastar Dantewada,Chhatisgarh,2
852,968816750,Khopoli,station,station,KHPI,IR,no,18.788473,73.34607120000001,KHPI,Khopoli,Raigad,Maharashtra,0
853,974441041,Peddapalli Junction,station,station,PDPL,IR,no,18.613756600000002,79.3923255,PDPL,Peddapalli,Peddapalli,Telangana,31
854,978654985,Pandurangapuram,station,station,PGP,IR,no,17.7197694,80.7652606,PGP,Panduranga Pura,Bhadradri Kothagudem,Telangana,0
855,978655137,Aswapuram,station,station,AWM,IR,no,17.8320036,80.8044301,AWM,Aswapuram,Bhadradri Kothagudem,Telangana,0
856,978672741,Chimalpahad,station,station,CMW,IR,no,17.493159000000002,80.38341870000001,CMW,Chima Pahad,Bhadradri Kothagudem,Telangana,2
857,978672747,Tadikalapudi,station,station,TPY,IR,no,17.5162117,80.46464680000001,TPY,Tadakalpudi,Bhadradri Kothagudem,Telangana,2
858,978672750,Bethampudi,station,station,BTPD,IR,no,17.5293585,80.5286335,BTPD,Bethampurdi,Bhadradri Kothagudem,Telangana,2
859,978672754,Gajulagudem,station,station,GLE,IR,no,17.611177700000002,80.6593902,GLE,Gajulagudem,Bhadradri Kothagudem,Telangana,0
860,981983511,Kolaghat,station,station,QGT,IR,no,22.435141400000003,87.88090720000001,QGT,Kolaghat,Purba Medinipur,West Bengal,0
861,981983722,Kanthi,station,station,KATI,IR,no,21.788462300000003,87.7339077,KATI,Kanthi P H,Purba Medinipur,West Bengal,16
862,979109081,Dhanuvachapuram,station,station,DAVM,IR,no,8.3783066,77.1258416,DAVM,Dhanuvachapuram,Thiruvananthapuram,Kerala,1
863,979109389,Eraniel,station,station,ERL,IR,no,8.213429,77.3076322,ERL,Eraniel,Kanyakumari,Tamil Nadu,10
864,979148803,Nemom,station,station,NEM,IR,no,8.4538721,77.01049230000001,NEM,Nemem,Thiruvananthapuram,Kerala,0
865,987476798,Tanuku,station,station,TNKU,IR,no,16.752289,81.6740039,TNKU,Tanuku,West Godavari,Andhra Pradesh,18
866,988814931,Mallemadugu,station,station,MLMG,IR,no,17.324699600000002,80.160559,MLMG,Mallemadugu,Y.S.R.,Andhra Pradesh,2
867,988818861,Papatapalli,station,station,PPY,IR,no,17.3729924,80.1759863,PPY,Papatapalli,Khammam,Telangana,2
