{
"type": "FeatureCollection",
"name": "railway_stations",
"crs": { "type": "name", "properties": { "name": "urn:ogc:def:crs:OGC:1.3:CRS84" } },
"features": [
{ "type": "Feature", "properties": { "id": 30518283, "name": "Vasai Road", "railway": "station", "public_transport": "station", "station_code": "BSR", "network": "Mumbai Suburban Railway", "internet_access": "no", "Station Code": "BSR", "Station Name": "Vasai Road", "District": "Palghar", "State": "Maharashtra", "Trains passing through": 125 }, "geometry": { "type": "Point", "coordinates": [ 72.8320245, 19.3826676 ] } },
{ "type": "Feature", "properties": { "id": 30518292, "name": "Naigaon", "railway": "station", "public_transport": "station", "station_code": "NIG", "network": "Mumbai Suburban Railway", "internet_access": "no", "Station Code": "NIG", "Station Name": "Naigaon", "District": "Thane", "State": "Maharashtra", "Trains passing through": 0 }, "geometry": { "type": "Point", "coordinates": [ 72.846522900000011, 19.3510925 ] } },
{ "type": "Feature", "properties": { "id": 30518297, "name": "Bhayandar", "railway": "station", "public_transport": "station", "station_code": "BYR", "network": "Mumbai Suburban Railway", "internet_access": "wlan", "Station Code": "BYR", "Station Name": "Bhayandar", "District": "Mumbai Suburban", "State": "Maharashtra", "Trains passing through": 0 }, "geometry": { "type": "Point", "coordinates": [ 72.8526988, 19.3101847 ] } },
{ "type": "Feature", "properties": { "id": 30518361, "name": "Kharbhav", "railway": "station", "public_transport": "station", "station_code": "KHBV", "network": "IR", "internet_access": "no", "Station Code": "KHBV", "Station Name": "Kharbao", "District": "Thane", "State": "Maharashtra", "Trains passing through": 0 }, "geometry": { "type": "Point", "coordinates": [ 72.98446770000001, 19.298321 ] } },
{ "type": "Feature", "properties": { "id": 30519796, "name": "Ranjangaon Road", "railway": "station", "public_transport": "station", "station_code": "RNJD", "network": "IR", "internet_access": "no", "Station Code": "RNJD", "Station Name": "Ranjangaon Rd", "District": "Ahmednagar", "State": "Maharashtra", "Trains passing through": 0 }, "geometry": { "type": "Point", "coordinates": [ 74.6067124, 18.8781663 ] } },
{ "type": "Feature", "properties": { "id": 30520541, "name": "Vapi", "railway": "station", "public_transport": "station", "station_code": "VAPI", "network": "IR", "internet_access": "no", "Station Code": "VAPI", "Station Name": "Vapi", "District": "Valsad", "State": "Gujarat", "Trains passing through": 171 }, "geometry": { "type": "Point", "coordinates": [ 72.9084376, 20.3735482 ] } },
{ "type": "Feature", "properties": { "id": 30520640, "name": "Palghar", "railway": "station", "public_transport": "station", "station_code": "PLG", "network": "Mumbai Suburban Railway", "internet_access": "no", "Station Code": "PLG", "Station Name": "Palghar", "District": "Palghar", "State": "Maharashtra", "Trains passing through": 34 }, "geometry": { "type": "Point", "coordinates": [ 72.7718888, 19.6978882 ] } },
{ "type": "Feature", "properties": { "id": 99902837, "name": "واہگہ", "railway": "station", "public_transport": "station", "station_code": null, "network": null, "internet_access": null, "Station Code": null, "Station Name": null, "District": null, "State": null, "Trains passing through": 0 }, "geometry": { "type": "Point", "coordinates": [ 74.5765072, 31.589944 ] } },
{ "type": "Feature", "properties": { "id": 99903377, "name": "Attari", "railway": "station", "public_transport": "station", "station_code": "ATT", "network": "IR", "internet_access": "no", "Station Code": "ATT", "Station Name": "Atari", "District": "Amritsar", "State": "Punjab", "Trains passing through": 6 }, "geometry": { "type": "Point", "coordinates": [ 74.6066213, 31.5945497 ] } },
{ "type": "Feature", "properties": { "id": 171051476, "name": "Doraha", "railway": "station", "public_transport": "station", "station_code": "DOA", "network": "IR", "internet_access": "no", "Station Code": "DOA", "Station Name": "Doraha", "District": "Ludhiana", "State": "Punjab", "Trains passing through": 9 }, "geometry": { "type": "Point", "coordinates": [ 76.0436763, 30.8038523 ] } },
{ "type": "Feature", "properties": { "id": 213017960, "name": "Bhivandi Road", "railway": "station", "public_transport": "station", "station_code": "BIRD", "network": "IR", "internet_access": "no", "Station Code": "BIRD", "Station Name": "Bhiwandi Road", "District": "Thane", "State": "Maharashtra", "Trains passing through": 34 }, "geometry": { "type": "Point", "coordinates": [ 73.0463121, 19.2688735 ] } },
{ "type": "Feature", "properties": { "id": 213030669, "name": "Dahisar", "railway": "station", "public_transport": "station", "station_code": "DIC", "network": "Mumbai Suburban Railway", "internet_access": "no", "Station Code": "DIC", "Station Name": "Dahisar", "District": "Mumbai Suburban", "State": "Maharashtra", "Trains passing through": 0 }, "geometry": { "type": "Point", "coordinates": [ 72.8596302, 19.2493572 ] } },
{ "type": "Feature", "properties": { "id": 213030714, "name": "Santa Cruz", "railway": "station", "public_transport": "station", "station_code": "STC", "network": "Mumbai Suburban Railway", "internet_access": "no", "Station Code": "STC", "Station Name": "Santa Cruz", "District": "Mumbai Suburban", "State": "Maharashtra", "Trains passing through": 0 }, "geometry": { "type": "Point", "coordinates": [ 72.8417565, 19.0815223 ] } },
{ "type": "Feature", "properties": { "id": 243415752, "name": "Sanehwal", "railway": "station", "public_transport": "station", "station_code": "SNL", "network": "IR", "internet_access": "no", "Station Code": "SNL", "Station Name": "Sanahwal", "District": "Ludhiana", "State": "Punjab", "Trains passing through": 1 }, "geometry": { "type": "Point", "coordinates": [ 75.9790542, 30.8379918 ] } },
{ "type": "Feature", "properties": { "id": 243874860, "name": "Jassowal", "railway": "station", "public_transport": "station", "station_code": "JSL", "network": "IR", "internet_access": "no", "Station Code": "JSL", "Station Name": "Jassowal Halt", "District": "Ludhiana", "State": "Punjab", "Trains passing through": 0 }, "geometry": { "type": "Point", "coordinates": [ 75.8321086, 30.800132 ] } },
{ "type": "Feature", "properties": { "id": 246582717, "name": "Thane", "railway": "station", "public_transport": "station", "station_code": "TNA", "network": "IR", "internet_access": "wlan", "Station Code": "TNA", "Station Name": "Thane", "District": "Thane", "State": "Maharashtra", "Trains passing through": 171 }, "geometry": { "type": "Point", "coordinates": [ 72.9757664, 19.186483 ] } },
{ "type": "Feature", "properties": { "id": 248467412, "name": "Chennai Chetpet", "railway": "station", "public_transport": "station", "station_code": "MSC", "network": "IR", "internet_access": "no", "Station Code": "MSC", "Station Name": "Chennai Chetpat", "District": "Chennai", "State": "Tamil Nadu", "Trains passing through": 0 }, "geometry": { "type": "Point", "coordinates": [ 80.242421, 13.0743424 ] } },
{ "type": "Feature", "properties": { "id": 248543525, "name": "Bisanattam", "railway": "station", "public_transport": "station", "station_code": "BSM", "network": "IR", "internet_access": "no", "Station Code": "BSM", "Station Name": "Bisanattam", "District": "Kolar", "State": "Karnataka", "Trains passing through": 2 }, "geometry": { "type": "Point", "coordinates": [ 78.2498583, 12.8422451 ] } },
{ "type": "Feature", "properties": { "id": 248543645, "name": "Kuppam", "railway": "station", "public_transport": "station", "station_code": "KPN", "network": "IR", "internet_access": "no", "Station Code": "KPN", "Station Name": "Kuppam", "District": "Chittoor", "State": "Andhra Pradesh", "Trains passing through": 33 }, "geometry": { "type": "Point", "coordinates": [ 78.3403626, 12.74728 ] } },
{ "type": "Feature", "properties": { "id": 248543699, "name": "Mulanur", "railway": "station", "public_transport": "station", "station_code": "MAR", "network": "IR", "internet_access": "no", "Station Code": "MAR", "Station Name": "Mulanur", "District": "Chittoor", "State": "Andhra Pradesh", "Trains passing through": 4 }, "geometry": { "type": "Point", "coordinates": [ 78.4067546, 12.662548 ] } },
{ "type": "Feature", "properties": { "id": 248543770, "name": "Patchur", "railway": "station", "public_transport": "station", "station_code": "PU", "network": "IR", "internet_access": "no", "Station Code": "PU", "Station Name": "Patchur", "District": "Tirupattur", "State": "Tamil Nadu", "Trains passing through": 4 }, "geometry": { "type": "Point", "coordinates": [ 78.469732900000011, 12.5865309 ] } },
{ "type": "Feature", "properties": { "id": 249823635, "name": "Ramesh Nagar", "railway": "station", "public_transport": "station", "station_code": null, "network": "Delhi Metro", "internet_access": null, "Station Code": null, "Station Name": null, "District": null, "State": null, "Trains passing through": 0 }, "geometry": { "type": "Point", "coordinates": [ 77.1316496, 28.6527444 ] } },
{ "type": "Feature", "properties": { "id": 252584508, "name": "Anand Vihar", "railway": "station", "public_transport": "station", "station_code": "ANVR", "network": "Indian Railways", "internet_access": "no", "Station Code": "ANVR", "Station Name": "Anand Vihar", "District": "East", "State": "Delhi", "Trains passing through": 2 }, "geometry": { "type": "Point", "coordinates": [ 77.3144992, 28.6498106 ] } },
{ "type": "Feature", "properties": { "id": 252584703, "name": "Kalipahari", "railway": "station", "public_transport": "station", "station_code": "KPK", "network": "IR", "internet_access": null, "Station Code": "KPK", "Station Name": "Kalipahari", "District": "Paschim Bardhaman", "State": "West Bengal", "Trains passing through": 0 }, "geometry": { "type": "Point", "coordinates": [ 87.0162555, 23.6648496 ] } },
{ "type": "Feature", "properties": { "id": 252584717, "name": "Dankuni", "railway": "station", "public_transport": "station", "station_code": "DKAE", "network": "IR", "internet_access": null, "Station Code": "DKAE", "Station Name": "Dankuni", "District": "Hooghly", "State": "West Bengal", "Trains passing through": 1 }, "geometry": { "type": "Point", "coordinates": [ 88.2907626, 22.6779609 ] } },
{ "type": "Feature", "properties": { "id": 252584722, "name": "Sealdah", "railway": "station", "public_transport": "station", "station_code": "SDAH", "network": "IR", "internet_access": "yes", "Station Code": "SDAH", "Station Name": "Kolkata Sealdah", "District": "Howrah", "State": "West Bengal", "Trains passing through": 54 }, "geometry": { "type": "Point", "coordinates": [ 88.3711047, 22.5679661 ] } },
{ "type": "Feature", "properties": { "id": 253454039, "name": "Bengaluru East", "railway": "station", "public_transport": "station", "station_code": "BNCE", "network": "IR", "internet_access": "no", "Station Code": "BNCE", "Station Name": "Bangalore East", "District": "Bangalore", "State": "Karnataka", "Trains passing through": 20 }, "geometry": { "type": "Point", "coordinates": [ 77.6183453, 13.0011462 ] } },
{ "type": "Feature", "properties": { "id": 256777901, "name": "Kanchipuram", "railway": "station", "public_transport": "station", "station_code": "CJ", "network": "IR", "internet_access": "no", "Station Code": "CJ", "Station Name": "Kanchipuram", "District": "Kanchipuram", "State": "Tamil Nadu", "Trains passing through": 4 }, "geometry": { "type": "Point", "coordinates": [ 79.705073, 12.8483107 ] } },
{ "type": "Feature", "properties": { "id": 261716087, "name": "Walajabad", "railway": "station", "public_transport": "station", "station_code": "WJ", "network": "IR", "internet_access": "no", "Station Code": "WJ", "Station Name": "Walajabad", "District": "Kanchipuram", "State": "Tamil Nadu", "Trains passing through": 0 }, "geometry": { "type": "Point", "coordinates": [ 79.8185833, 12.7968265 ] } },
{ "type": "Feature", "properties": { "id": 261716103, "name": "Kanchipuram East", "railway": "station", "public_transport": "station", "station_code": "CJE", "network": "IR", "internet_access": "no", "Station Code": "CJE", "Station Name": "Kanchipuram East", "District": "Kanchipuram", "State": "Tamil Nadu", "Trains passing through": 0 }, "geometry": { "type": "Point", "coordinates": [ 79.7121979, 12.8408612 ] } },
{ "type": "Feature", "properties": { "id": 262308384, "name": "Pattabiram Military Siding", "railway": "station", "public_transport": "station", "station_code": "PTMS", "network": "IR", "internet_access": "no", "Station Code": "PTMS", "Station Name": "Pattabiram Military", "District": "Thiruvallur", "State": "Tamil Nadu", "Trains passing through": 0 }, "geometry": { "type": "Point", "coordinates": [ 80.0601177, 13.1373759 ] } },
{ "type": "Feature", "properties": { "id": 266585003, "name": "Etawah Junction", "railway": "station", "public_transport": "station", "station_code": "ETW", "network": "IR", "internet_access": "no", "Station Code": "ETW", "Station Name": "Etawah", "District": "Etawah", "State": "Uttar Pradesh", "Trains passing through": 64 }, "geometry": { "type": "Point", "coordinates": [ 79.020935900000012, 26.7869304 ] } },
{ "type": "Feature", "properties": { "id": 257720799, "name": "Hoshiarpur", "railway": "station", "public_transport": "station", "station_code": "HSX", "network": "IR", "internet_access": "no", "Station Code": "HSX", "Station Name": "Hoshiarpur", "District": "Hoshiarpur", "State": "Punjab", "Trains passing through": 2 }, "geometry": { "type": "Point", "coordinates": [ 75.9059959, 31.5243314 ] } },
{ "type": "Feature", "properties": { "id": 268217229, "name": "Patel Nagar", "railway": "station", "public_transport": "station", "station_code": null, "network": "Delhi Metro", "internet_access": null, "Station Code": null, "Station Name": null, "District": null, "State": null, "Trains passing through": 0 }, "geometry": { "type": "Point", "coordinates": [ 77.1692817, 28.6450127 ] } },
{ "type": "Feature", "properties": { "id": 268381455, "name": "Rithala", "railway": "station", "public_transport": "station", "station_code": null, "network": "Delhi Metro", "internet_access": null, "Station Code": null, "Station Name": null, "District": null, "State": null, "Trains passing through": 0 }, "geometry": { "type": "Point", "coordinates": [ 77.1071813, 28.7208064 ] } },
{ "type": "Feature", "properties": { "id": 268381457, "name": "Pratap Nagar", "railway": "station", "public_transport": "station", "station_code": null, "network": "Delhi Metro", "internet_access": null, "Station Code": null, "Station Name": null, "District": null, "State": null, "Trains passing through": 0 }, "geometry": { "type": "Point", "coordinates": [ 77.1988974, 28.6667177 ] } },
{ "type": "Feature", "properties": { "id": 268381463, "name": "Pul Bangash", "railway": "station", "public_transport": "station", "station_code": null, "network": "Delhi Metro", "internet_access": null, "Station Code": null, "Station Name": null, "District": null, "State": null, "Trains passing through": 0 }, "geometry": { "type": "Point", "coordinates": [ 77.2074156, 28.6664068 ] } },
{ "type": "Feature", "properties": { "id": 268381477, "name": "Kashmere Gate", "railway": "station", "public_transport": "station", "station_code": null, "network": "Delhi Metro", "internet_access": null, "Station Code": null, "Station Name": null, "District": null, "State": null, "Trains passing through": 0 }, "geometry": { "type": "Point", "coordinates": [ 77.2282488, 28.6674493 ] } },
{ "type": "Feature", "properties": { "id": 269201529, "name": "Kozhikode", "railway": "station", "public_transport": "station", "station_code": "CLT", "network": "IR", "internet_access": "wlan", "Station Code": "CLT", "Station Name": "Kozhikode", "District": "Kozhikode", "State": "Kerala", "Trains passing through": 107 }, "geometry": { "type": "Point", "coordinates": [ 75.7803858, 11.2459092 ] } },
{ "type": "Feature", "properties": { "id": 267158149, "name": "Tirumalpur", "railway": "station", "public_transport": "station", "station_code": "TMLP", "network": "IR", "internet_access": "wlan", "Station Code": "TMLP", "Station Name": "Tirumalpur", "District": "Kanchipuram", "State": "Tamil Nadu", "Trains passing through": 0 }, "geometry": { "type": "Point", "coordinates": [ 79.673762700000012, 12.9565668 ] } },
{ "type": "Feature", "properties": { "id": 276561422, "name": "Ambivli", "railway": "station", "public_transport": "station", "station_code": "ABY", "network": "IR", "internet_access": null, "Station Code": "ABY", "Station Name": "Ambivli", "District": "Thane", "State": "Maharashtra", "Trains passing through": 0 }, "geometry": { "type": "Point", "coordinates": [ 73.1718625, 19.267645 ] } },
{ "type": "Feature", "properties": { "id": 276561622, "name": "Titwala", "railway": "station", "public_transport": "station", "station_code": "TLA", "network": "IR", "internet_access": "no", "Station Code": "TLA", "Station Name": "Titvala", "District": "Thane", "State": "Maharashtra", "Trains passing through": 0 }, "geometry": { "type": "Point", "coordinates": [ 73.2032791, 19.2963414 ] } },
{ "type": "Feature", "properties": { "id": 276561755, "name": "Khadavli", "railway": "station", "public_transport": "station", "station_code": "KDV", "network": "IR", "internet_access": "no", "Station Code": "KDV", "Station Name": "Khadavli", "District": "Thane", "State": "Maharashtra", "Trains passing through": 0 }, "geometry": { "type": "Point", "coordinates": [ 73.2190375, 19.356724 ] } },
{ "type": "Feature", "properties": { "id": 276562459, "name": "Vithalwadi", "railway": "station", "public_transport": "station", "station_code": "VLDI", "network": "IR", "internet_access": "no", "Station Code": "VLDI", "Station Name": "Vithalwadi", "District": "Thane", "State": "Maharashtra", "Trains passing through": 0 }, "geometry": { "type": "Point", "coordinates": [ 73.1495166, 19.228396 ] } },
{ "type": "Feature", "properties": { "id": 276562803, "name": "Ambernath", "railway": "station", "public_transport": "station", "station_code": "ABH", "network": "IR", "internet_access": "no", "Station Code": "ABH", "Station Name": "Ambarnath", "District": "Thane", "State": "Maharashtra", "Trains passing through": 0 }, "geometry": { "type": "Point", "coordinates": [ 73.1851962, 19.2094131 ] } },
{ "type": "Feature", "properties": { "id": 276563224, "name": "Badlapur", "railway": "station", "public_transport": "station", "station_code": "BUD", "network": "IR", "internet_access": "no", "Station Code": "BUD", "Station Name": "Badlapur", "District": "Thane", "State": "Maharashtra", "Trains passing through": 0 }, "geometry": { "type": "Point", "coordinates": [ 73.2389064, 19.1666237 ] } },
{ "type": "Feature", "properties": { "id": 276569986, "name": "Lonavala", "railway": "station", "public_transport": "station", "station_code": "LNL", "network": "IR", "internet_access": "no", "Station Code": "LNL", "Station Name": "Lonavala", "District": "Pune", "State": "Maharashtra", "Trains passing through": 130 }, "geometry": { "type": "Point", "coordinates": [ 73.4069436, 18.7503694 ] } },
{ "type": "Feature", "properties": { "id": 279318170, "name": "Aruvankadu", "railway": "station", "public_transport": "station", "station_code": "AVK", "network": "IR", "internet_access": "no", "Station Code": "AVK", "Station Name": "Aravankadu", "District": "Nilgiris", "State": "Tamil Nadu", "Trains passing through": 2 }, "geometry": { "type": "Point", "coordinates": [ 76.769611, 11.3595344 ] } },
{ "type": "Feature", "properties": { "id": 279318171, "name": "Ketti", "railway": "station", "public_transport": "station", "station_code": "KXT", "network": "IR", "internet_access": "yes", "Station Code": "KXT", "Station Name": "Ketti", "District": "Nilgiris", "State": "Tamil Nadu", "Trains passing through": 2 }, "geometry": { "type": "Point", "coordinates": [ 76.7376133, 11.3817911 ] } },
{ "type": "Feature", "properties": { "id": 279318172, "name": "Udhagamandalam", "railway": "station", "public_transport": "station", "station_code": "UAM", "network": "IR", "internet_access": "wlan", "Station Code": "UAM", "Station Name": "Udagamandalam", "District": "Nilgiris", "State": "Tamil Nadu", "Trains passing through": 2 }, "geometry": { "type": "Point", "coordinates": [ 76.6963387, 11.4051694 ] } },
{ "type": "Feature", "properties": { "id": 279318254, "name": "Hill Grove", "railway": "station", "public_transport": "station", "station_code": "HLG", "network": "IR", "internet_access": "no", "Station Code": "HLG", "Station Name": "Hillgrove", "District": "Nilgiris", "State": "Tamil Nadu", "Trains passing through": 2 }, "geometry": { "type": "Point", "coordinates": [ 76.835664900000012, 11.3420141 ] } },
{ "type": "Feature", "properties": { "id": 279954205, "name": "Kallar", "railway": "station", "public_transport": "station", "station_code": "QLR", "network": "IR", "internet_access": "no", "Station Code": "QLR", "Station Name": "Kallar", "District": "Nilgiris", "State": "Tamil Nadu", "Trains passing through": 2 }, "geometry": { "type": "Point", "coordinates": [ 76.88290640000001, 11.3385535 ] } },
{ "type": "Feature", "properties": { "id": 288370387, "name": "Erode Junction", "railway": "station", "public_transport": "station", "station_code": "ED", "network": "IR", "internet_access": "wlan", "Station Code": "ED", "Station Name": "Erode Jn", "District": "Erode", "State": "Tamil Nadu", "Trains passing through": 169 }, "geometry": { "type": "Point", "coordinates": [ 77.7257896, 11.3286258 ] } },
{ "type": "Feature", "properties": { "id": 289582025, "name": "Khairatabad", "railway": "station", "public_transport": "station", "station_code": "KQD", "network": "IR", "internet_access": "no", "Station Code": "KQD", "Station Name": "Khairatabad Dcn", "District": "Hyderabad", "State": "Telangana", "Trains passing through": 0 }, "geometry": { "type": "Point", "coordinates": [ 78.461058200000011, 17.4129744 ] } },
{ "type": "Feature", "properties": { "id": 289582401, "name": "Necklace Road", "railway": "station", "public_transport": "station", "station_code": "NLRD", "network": "IR", "internet_access": "no", "Station Code": "NLRD", "Station Name": "Necklace Road", "District": "Hyderabad", "State": "Telangana", "Trains passing through": 0 }, "geometry": { "type": "Point", "coordinates": [ 78.463185700000011, 17.4233355 ] } },
{ "type": "Feature", "properties": { "id": 292671742, "name": "Birapatti", "railway": "station", "public_transport": "station", "station_code": "BRPT", "network": "IR", "internet_access": null, "Station Code": "BRPT", "Station Name": "Birapatti", "District": "Varanasi", "State": "Uttar Pradesh", "Trains passing through": 1 }, "geometry": { "type": "Point", "coordinates": [ 82.913046, 25.4061855 ] } },
{ "type": "Feature", "properties": { "id": 293269947, "name": "Kashi", "railway": "station", "public_transport": "station", "station_code": "KEI", "network": null, "internet_access": null, "Station Code": "KEI", "Station Name": "Kashi", "District": "Varanasi", "State": "Uttar Pradesh", "Trains passing through": 24 }, "geometry": { "type": "Point", "coordinates": [ 83.0318039, 25.3268078 ] } },
{ "type": "Feature", "properties": { "id": 297649087, "name": "Ajni", "railway": "station", "public_transport": "station", "station_code": "AJNI", "network": "IR", "internet_access": "no", "Station Code": "AJNI", "Station Name": "Ajni", "District": "Nagpur", "State": "Maharashtra", "Trains passing through": 29 }, "geometry": { "type": "Point", "coordinates": [ 79.0825751, 21.1269226 ] } },
{ "type": "Feature", "properties": { "id": 298611723, "name": "Mulki", "railway": "station", "public_transport": "station", "station_code": "MULK", "network": "IR", "internet_access": "no", "Station Code": "MULK", "Station Name": "Mulki", "District": "Dakshina Kannada", "State": "Karnataka", "Trains passing through": 18 }, "geometry": { "type": "Point", "coordinates": [ 74.8052727, 13.068958 ] } },
{ "type": "Feature", "properties": { "id": 298616683, "name": "Badnera Junction", "railway": "station", "public_transport": "station", "station_code": "BD", "network": "IR", "internet_access": "no", "Station Code": "BD", "Station Name": "Badnera Jn", "District": "Amravati", "State": "Maharashtra", "Trains passing through": 98 }, "geometry": { "type": "Point", "coordinates": [ 77.7321821, 20.8570611 ] } },
{ "type": "Feature", "properties": { "id": 298620871, "name": "Kaotha", "railway": "station", "public_transport": "station", "station_code": "KAOT", "network": "IR", "internet_access": "no", "Station Code": "KAOT", "Station Name": "Kaotha", "District": "Wardha", "State": "Maharashtra", "Trains passing through": 0 }, "geometry": { "type": "Point", "coordinates": [ 78.3773822, 20.7373659 ] } },
{ "type": "Feature", "properties": { "id": 298665222, "name": "Kanhan Junction", "railway": "station", "public_transport": "station", "station_code": "KNHN", "network": "IR", "internet_access": "no", "Station Code": "KNHN", "Station Name": "Kanthan Jn", "District": "Nagpur", "State": "Maharashtra", "Trains passing through": 0 }, "geometry": { "type": "Point", "coordinates": [ 79.236808700000012, 21.224885 ] } },
{ "type": "Feature", "properties": { "id": 300062249, "name": "Padil", "railway": "station", "public_transport": "station", "station_code": "PADL", "network": "IR", "internet_access": "no", "Station Code": "PADL", "Station Name": "Padil", "District": "Dakshina Kannada", "State": "Karnataka", "Trains passing through": 0 }, "geometry": { "type": "Point", "coordinates": [ 74.894361, 12.8752966 ] } },
{ "type": "Feature", "properties": { "id": 304278622, "name": "Anna Nagar West", "railway": "station", "public_transport": "station", "station_code": "ANNG", "network": "IR", "internet_access": "no", "Station Code": null, "Station Name": null, "District": null, "State": null, "Trains passing through": 0 }, "geometry": { "type": "Point", "coordinates": [ 80.2010061, 13.0985386 ] } },
{ "type": "Feature", "properties": { "id": 304281114, "name": "Cheruvattur", "railway": "station", "public_transport": "station", "station_code": "CHV", "network": "IR", "internet_access": "no", "Station Code": "CHV", "Station Name": "Charvattur", "District": "Kasaragod", "State": "Kerala", "Trains passing through": 16 }, "geometry": { "type": "Point", "coordinates": [ 75.154426, 12.2145179 ] } },
{ "type": "Feature", "properties": { "id": 304986468, "name": "Neyyattinkara", "railway": "station", "public_transport": "station", "station_code": "NYY", "network": "IR", "internet_access": "no", "Station Code": "NYY", "Station Name": "Neyyattinkara", "District": "Thiruvananthapuram", "State": "Kerala", "Trains passing through": 12 }, "geometry": { "type": "Point", "coordinates": [ 77.08162750000001, 8.4100639 ] } },
{ "type": "Feature", "properties": { "id": 304986485, "name": "Balaramapuram", "railway": "station", "public_transport": "station", "station_code": "BRAM", "network": "IR", "internet_access": "no", "Station Code": "BRAM", "Station Name": "Balaramapuram", "District": "Thiruvananthapuram", "State": "Kerala", "Trains passing through": 0 }, "geometry": { "type": "Point", "coordinates": [ 77.0519047, 8.429903 ] } },
{ "type": "Feature", "properties": { "id": 305221832, "name": "Itwari Junction", "railway": "station", "public_transport": "station", "station_code": "NITR", "network": "IR", "internet_access": "no", "Station Code": null, "Station Name": null, "District": null, "State": null, "Trains passing through": 0 }, "geometry": { "type": "Point", "coordinates": [ 79.1188261, 21.1575034 ] } },
{ "type": "Feature", "properties": { "id": 305232115, "name": "Tumsar Road Junction", "railway": "station", "public_transport": "station", "station_code": "TMR", "network": "IR", "internet_access": "no", "Station Code": "TMR", "Station Name": "Tumsar Road", "District": "Bhandara", "State": "Maharashtra", "Trains passing through": 27 }, "geometry": { "type": "Point", "coordinates": [ 79.7511434, 21.3421773 ] } },
{ "type": "Feature", "properties": { "id": 305234547, "name": "Rajnandgaon", "railway": "station", "public_transport": "station", "station_code": "RJN", "network": "IR", "internet_access": "no", "Station Code": "RJN", "Station Name": "Raj Nandgaon", "District": "Rajnandgaon", "State": "Chhatisgarh", "Trains passing through": 64 }, "geometry": { "type": "Point", "coordinates": [ 81.0379824, 21.1014629 ] } },
{ "type": "Feature", "properties": { "id": 305287020, "name": "Bhilai Nagar", "railway": "station", "public_transport": "station", "station_code": "BQR", "network": "IR", "internet_access": "no", "Station Code": "BQR", "Station Name": "Bhilai Nagar", "District": "Durg", "State": "Chhatisgarh", "Trains passing through": 2 }, "geometry": { "type": "Point", "coordinates": [ 81.3352266, 21.2011836 ] } },
{ "type": "Feature", "properties": { "id": 305287023, "name": "Bhilai Power House", "railway": "station", "public_transport": "station", "station_code": "BPHB", "network": "IR", "internet_access": "no", "Station Code": "BPHB", "Station Name": "Bhilai Power House", "District": "Durg", "State": "Chhatisgarh", "Trains passing through": 29 }, "geometry": { "type": "Point", "coordinates": [ 81.3758068, 21.2082282 ] } },
{ "type": "Feature", "properties": { "id": 305287025, "name": "Bhilai", "railway": "station", "public_transport": "station", "station_code": "BIA", "network": "IR", "internet_access": "no", "Station Code": "BIA", "Station Name": "Bhilai", "District": "Durg", "State": "Chhatisgarh", "Trains passing through": 4 }, "geometry": { "type": "Point", "coordinates": [ 81.4210875, 21.2028719 ] } },
{ "type": "Feature", "properties": { "id": 306425282, "name": "Sonma Pranpur halt", "railway": "station", "public_transport": "station", "station_code": "SOPR", "network": null, "internet_access": "no", "Station Code": "SOPR", "Station Name": "Sonma Pranpur(H", "District": "Begusarai", "State": "Bihar", "Trains passing through": 0 }, "geometry": { "type": "Point", "coordinates": [ 86.2255523, 25.6320975 ] } },
{ "type": "Feature", "properties": { "id": 307015337, "name": "Malakpet", "railway": "station", "public_transport": "station", "station_code": "MXT", "network": "IR", "internet_access": "no", "Station Code": "MXT", "Station Name": "Malakpet Kacheguda", "District": "Hyderabad", "State": "Telangana", "Trains passing through": 2 }, "geometry": { "type": "Point", "coordinates": [ 78.4948263, 17.3765035 ] } },
{ "type": "Feature", "properties": { "id": 307023348, "name": "Kacheguda", "railway": "station", "public_transport": "station", "station_code": "KCG", "network": "IR", "internet_access": "wlan", "Station Code": "KCG", "Station Name": "Kacheguda", "District": "Hyderabad", "State": "Telangana", "Trains passing through": 63 }, "geometry": { "type": "Point", "coordinates": [ 78.499240300000011, 17.389311 ] } },
{ "type": "Feature", "properties": { "id": 308073351, "name": "Chikka Banavara", "railway": "station", "public_transport": "station", "station_code": "BAW", "network": "IR", "internet_access": "no", "Station Code": "BAW", "Station Name": "Chik Banavar", "District": "Bangalore", "State": "Karnataka", "Trains passing through": 8 }, "geometry": { "type": "Point", "coordinates": [ 77.5056373, 13.0746787 ] } },
{ "type": "Feature", "properties": { "id": 308061696, "name": "Hejjala", "railway": "station", "public_transport": "station", "station_code": "HJL", "network": "IR", "internet_access": "no", "Station Code": "HJL", "Station Name": "Hejjala", "District": "Bangalore Rural", "State": "Karnataka", "Trains passing through": 2 }, "geometry": { "type": "Point", "coordinates": [ 77.4183276, 12.8484112 ] } },
{ "type": "Feature", "properties": { "id": 308062102, "name": "Kengeri", "railway": "station", "public_transport": "station", "station_code": "KGI", "network": "IR", "internet_access": "wlan", "Station Code": "KGI", "Station Name": "Kengeri", "District": "Bangalore", "State": "Karnataka", "Trains passing through": 44 }, "geometry": { "type": "Point", "coordinates": [ 77.4837568, 12.9176571 ] } },
{ "type": "Feature", "properties": { "id": 308062851, "name": "Nayandahalli", "railway": "station", "public_transport": "station", "station_code": "NYH", "network": "IR", "internet_access": "no", "Station Code": "NYH", "Station Name": "Nayandahalli", "District": "Bangalore", "State": "Karnataka", "Trains passing through": 6 }, "geometry": { "type": "Point", "coordinates": [ 77.5212118, 12.9413253 ] } },
{ "type": "Feature", "properties": { "id": 308937020, "name": "Moula Ali", "railway": "station", "public_transport": "station", "station_code": "MLY", "network": "IR", "internet_access": "no", "Station Code": "MLY", "Station Name": "Maula Ali", "District": "Hyderabad", "State": "Telangana", "Trains passing through": 13 }, "geometry": { "type": "Point", "coordinates": [ 78.5506697, 17.4407394 ] } },
{ "type": "Feature", "properties": { "id": 310988176, "name": "Titagarh", "railway": "station", "public_transport": "station", "station_code": "TGH", "network": "IR", "internet_access": null, "Station Code": "TGH", "Station Name": "Titagarh", "District": "North 24 Parganas", "State": "West Bengal", "Trains passing through": 2 }, "geometry": { "type": "Point", "coordinates": [ 88.3745843, 22.7411261 ] } },
{ "type": "Feature", "properties": { "id": 310990693, "name": "Tribeni", "railway": "station", "public_transport": "station", "station_code": "TBAE", "network": "IR", "internet_access": "no", "Station Code": "TBAE", "Station Name": "Tribeni", "District": "Hooghly", "State": "West Bengal", "Trains passing through": 2 }, "geometry": { "type": "Point", "coordinates": [ 88.3982606, 22.990303 ] } },
{ "type": "Feature", "properties": { "id": 310992938, "name": "Nasibpur", "railway": "station", "public_transport": "station", "station_code": "NSF", "network": "IR", "internet_access": null, "Station Code": "NSF", "Station Name": "Nasibpur", "District": "Hooghly", "State": "West Bengal", "Trains passing through": 0 }, "geometry": { "type": "Point", "coordinates": [ 88.2636731, 22.8046405 ] } },
{ "type": "Feature", "properties": { "id": 310993110, "name": "Uttarpara", "railway": "station", "public_transport": "station", "station_code": "UPA", "network": "IR", "internet_access": "no", "Station Code": "UPA", "Station Name": "Uttarpara", "District": "Hooghly", "State": "West Bengal", "Trains passing through": 0 }, "geometry": { "type": "Point", "coordinates": [ 88.3411458, 22.6670459 ] } },
{ "type": "Feature", "properties": { "id": 310996032, "name": "Kazipara", "railway": "station", "public_transport": "station", "station_code": "KZPR", "network": "IR", "internet_access": null, "Station Code": "KZPR", "Station Name": "Kazipara", "District": "Murshidabad", "State": "West Bengal", "Trains passing through": 0 }, "geometry": { "type": "Point", "coordinates": [ 88.5083659, 22.7226496 ] } },
{ "type": "Feature", "properties": { "id": 311395943, "name": "Mau Junction", "railway": "station", "public_transport": "station", "station_code": "MAU", "network": "IR", "internet_access": null, "Station Code": "MAU", "Station Name": "Mau Jn", "District": "Mau", "State": "Uttar Pradesh", "Trains passing through": 48 }, "geometry": { "type": "Point", "coordinates": [ 83.563377800000012, 25.9380732 ] } },
{ "type": "Feature", "properties": { "id": 311963955, "name": "Kohat Enclave", "railway": "station", "public_transport": "station", "station_code": null, "network": "Delhi Metro", "internet_access": null, "Station Code": null, "Station Name": null, "District": null, "State": null, "Trains passing through": 0 }, "geometry": { "type": "Point", "coordinates": [ 77.1405393, 28.6980415 ] } },
{ "type": "Feature", "properties": { "id": 312613037, "name": "Naini Junction", "railway": "station", "public_transport": "station", "station_code": "NYN", "network": "IR", "internet_access": "no", "Station Code": "NYN", "Station Name": "Naini", "District": "Prayagraj", "State": "Uttar Pradesh", "Trains passing through": 18 }, "geometry": { "type": "Point", "coordinates": [ 81.860203500000011, 25.393729 ] } },
{ "type": "Feature", "properties": { "id": 312618057, "name": "Daraganj", "railway": "station", "public_transport": "station", "station_code": "DRGJ", "network": null, "internet_access": null, "Station Code": "DRGJ", "Station Name": "Daraganj", "District": "Prayagraj", "State": "Uttar Pradesh", "Trains passing through": 0 }, "geometry": { "type": "Point", "coordinates": [ 81.8804985, 25.4430353 ] } },
{ "type": "Feature", "properties": { "id": 312624621, "name": "Prayag Junction", "railway": "station", "public_transport": "station", "station_code": "PRG", "network": "IR", "internet_access": null, "Station Code": "PRG", "Station Name": "Prayag", "District": "Prayagraj", "State": "Uttar Pradesh", "Trains passing through": 29 }, "geometry": { "type": "Point", "coordinates": [ 81.8674698, 25.4690487 ] } },
{ "type": "Feature", "properties": { "id": 312814036, "name": "Banahi", "railway": "station", "public_transport": "station", "station_code": "BYN", "network": "IR", "internet_access": null, "Station Code": "BYN", "Station Name": "Banahi", "District": "Bhojpur", "State": "Bihar", "Trains passing through": 12 }, "geometry": { "type": "Point", "coordinates": [ 84.3911004, 25.5613457 ] } },
{ "type": "Feature", "properties": { "id": 312815797, "name": "Danapur", "railway": "station", "public_transport": "station", "station_code": "DNR", "network": null, "internet_access": null, "Station Code": "DNR", "Station Name": "Danapur", "District": "Patna", "State": "Bihar", "Trains passing through": 97 }, "geometry": { "type": "Point", "coordinates": [ 85.0463248, 25.5823023 ] } },
{ "type": "Feature", "properties": { "id": 312818321, "name": "Parsa Bazar", "railway": "station", "public_transport": "station", "station_code": "PRBZ", "network": "IR", "internet_access": null, "Station Code": "PRBZ", "Station Name": "Parsa Bazar", "District": "Patna", "State": "Bihar", "Trains passing through": 2 }, "geometry": { "type": "Point", "coordinates": [ 85.119042400000012, 25.5496823 ] } },
{ "type": "Feature", "properties": { "id": 312877098, "name": "Iradatganj", "railway": "station", "public_transport": "station", "station_code": "IDGJ", "network": "IR", "internet_access": "no", "Station Code": "IDGJ", "Station Name": "Iradatganj", "District": "Prayagraj", "State": "Uttar Pradesh", "Trains passing through": 1 }, "geometry": { "type": "Point", "coordinates": [ 81.8193512, 25.3180224 ] } },
{ "type": "Feature", "properties": { "id": 312630864, "name": "Sarai Chandi", "railway": "station", "public_transport": "station", "station_code": "SYC", "network": "Indian Railways", "internet_access": null, "Station Code": "SYC", "Station Name": "Sarai Chandi", "District": "Prayagraj", "State": "Uttar Pradesh", "Trains passing through": 2 }, "geometry": { "type": "Point", "coordinates": [ 81.9799978, 25.5393843 ] } },
{ "type": "Feature", "properties": { "id": 312632511, "name": "Phulpur", "railway": "station", "public_transport": "station", "station_code": "PLP", "network": "Indian Railways", "internet_access": null, "Station Code": "PLP", "Station Name": "Phulpur", "District": "Prayagraj", "State": "Uttar Pradesh", "Trains passing through": 14 }, "geometry": { "type": "Point", "coordinates": [ 82.0907128, 25.5521275 ] } },
{ "type": "Feature", "properties": { "id": 312634962, "name": "Manauri", "railway": "station", "public_transport": "station", "station_code": "MRE", "network": "IR", "internet_access": null, "Station Code": "MRE", "Station Name": "Manauri", "District": "Kaushambi", "State": "Uttar Pradesh", "Trains passing through": 1 }, "geometry": { "type": "Point", "coordinates": [ 81.6619051, 25.4698192 ] } },
{ "type": "Feature", "properties": { "id": 316673866, "name": "Getor Jagatpura", "railway": "station", "public_transport": "station", "station_code": "GTJT", "network": "IR", "internet_access": "no", "Station Code": "GTJT", "Station Name": "Getor Jagatpura", "District": "Jaipur", "State": "Rajasthan", "Trains passing through": 19 }, "geometry": { "type": "Point", "coordinates": [ 75.8320226, 26.837001 ] } },
{ "type": "Feature", "properties": { "id": 316681502, "name": "Dahar-Ka-Balaji", "railway": "station", "public_transport": "station", "station_code": "DKBJ", "network": "IR", "internet_access": "no", "Station Code": "DKBJ", "Station Name": "Dahar Ka Balaji", "District": "Jaipur", "State": "Rajasthan", "Trains passing through": 3 }, "geometry": { "type": "Point", "coordinates": [ 75.766114, 26.9445145 ] } },
{ "type": "Feature", "properties": { "id": 316683309, "name": "Govindgarh Malikpur", "railway": "station", "public_transport": "station", "station_code": "GND", "network": "IR", "internet_access": "no", "Station Code": "GND", "Station Name": "Govindgarh Malk", "District": "Jaipur", "State": "Rajasthan", "Trains passing through": 3 }, "geometry": { "type": "Point", "coordinates": [ 75.6461932, 27.2403553 ] } },
{ "type": "Feature", "properties": { "id": 316684768, "name": "Vrindavan", "railway": "station", "public_transport": "station", "station_code": "BDB", "network": "IR", "internet_access": "no", "Station Code": "BDB", "Station Name": "Vrindavan", "District": "Mathura", "State": "Uttar Pradesh", "Trains passing through": 0 }, "geometry": { "type": "Point", "coordinates": [ 77.6942078, 27.576332 ] } },
{ "type": "Feature", "properties": { "id": 316828928, "name": "Hetampur", "railway": "station", "public_transport": "station", "station_code": "HET", "network": "IR", "internet_access": "no", "Station Code": "HET", "Station Name": "Hetampur", "District": "Morena", "State": "Madhya Pradesh", "Trains passing through": 0 }, "geometry": { "type": "Point", "coordinates": [ 77.9437529, 26.6108502 ] } },
{ "type": "Feature", "properties": { "id": 316830390, "name": "Shivpuri", "railway": "station", "public_transport": "station", "station_code": "SVPI", "network": "IR", "internet_access": "no", "Station Code": "SVPI", "Station Name": "Shivpuri", "District": "Shivpuri", "State": "Madhya Pradesh", "Trains passing through": 18 }, "geometry": { "type": "Point", "coordinates": [ 77.6381522, 25.4380842 ] } },
{ "type": "Feature", "properties": { "id": 317047338, "name": "Anand Junction", "railway": "station", "public_transport": "station", "station_code": "ANND", "network": "IR", "internet_access": "no", "Station Code": "ANND", "Station Name": "Anand Jn", "District": "Anand", "State": "Gujarat", "Trains passing through": 183 }, "geometry": { "type": "Point", "coordinates": [ 72.9659457, 22.5617213 ] } },
{ "type": "Feature", "properties": { "id": 317047858, "name": "Sadanapura", "railway": "station", "public_transport": "station", "station_code": "SNA", "network": "IR", "internet_access": "no", "Station Code": "SNA", "Station Name": "Sadanapura", "District": "Anand", "State": "Gujarat", "Trains passing through": 0 }, "geometry": { "type": "Point", "coordinates": [ 73.0113438, 22.6011883 ] } },
{ "type": "Feature", "properties": { "id": 317049926, "name": "Savli", "railway": "station", "public_transport": "station", "station_code": "SVLI", "network": "IR", "internet_access": "no", "Station Code": "SVLI", "Station Name": "Savli", "District": "Vadodara", "State": "Gujarat", "Trains passing through": 0 }, "geometry": { "type": "Point", "coordinates": [ 73.2272125, 22.555925 ] } },
{ "type": "Feature", "properties": { "id": 316775607, "name": "Dhaurmui Jaghina", "railway": "station", "public_transport": "station", "station_code": "DUM", "network": "IR", "internet_access": "no", "Station Code": "DUM", "Station Name": "Dhaurmui Jaghna", "District": "Bharatpur", "State": "Rajasthan", "Trains passing through": 0 }, "geometry": { "type": "Point", "coordinates": [ 77.5362053, 27.2918739 ] } },
{ "type": "Feature", "properties": { "id": 318132819, "name": "Vishwamitri Junction", "railway": "station", "public_transport": "station", "station_code": "VS", "network": "IR", "internet_access": "no", "Station Code": "VS", "Station Name": "Vishvamitri", "District": "Vadodara", "State": "Gujarat", "Trains passing through": 7 }, "geometry": { "type": "Point", "coordinates": [ 73.1789829, 22.2846096 ] } },
{ "type": "Feature", "properties": { "id": 318135704, "name": "Pratapnagar", "railway": "station", "public_transport": "station", "station_code": "PRTN", "network": "IR", "internet_access": "no", "Station Code": "PRTN", "Station Name": "Pratapnagar", "District": "Vadodara", "State": "Gujarat", "Trains passing through": 0 }, "geometry": { "type": "Point", "coordinates": [ 73.2108325, 22.2814988 ] } },
{ "type": "Feature", "properties": { "id": 318140382, "name": "Makarpura", "railway": "station", "public_transport": "station", "station_code": "MPR", "network": "IR", "internet_access": "no", "Station Code": "MPR", "Station Name": "Makarpura", "District": "Vadodara", "State": "Gujarat", "Trains passing through": 0 }, "geometry": { "type": "Point", "coordinates": [ 73.1759325, 22.233662 ] } },
{ "type": "Feature", "properties": { "id": 318143159, "name": "Chhayapuri", "railway": "station", "public_transport": "station", "station_code": "CYI", "network": "IR", "internet_access": "no", "Station Code": "CYI", "Station Name": "Chhayapuri", "District": "Vadodara", "State": "Gujarat", "Trains passing through": 2 }, "geometry": { "type": "Point", "coordinates": [ 73.1656446, 22.3712532 ] } },
{ "type": "Feature", "properties": { "id": 318143940, "name": "Bajva", "railway": "station", "public_transport": "station", "station_code": "BJW", "network": "IR", "internet_access": "no", "Station Code": "BJW", "Station Name": "Bajva", "District": "Vadodara", "State": "Gujarat", "Trains passing through": 2 }, "geometry": { "type": "Point", "coordinates": [ 73.14378, 22.3668433 ] } },
{ "type": "Feature", "properties": { "id": 318156510, "name": "Kanjari Boriyavi Junction", "railway": "station", "public_transport": "station", "station_code": "KBRV", "network": "IR", "internet_access": "no", "Station Code": "KBRV", "Station Name": "Kanjari Boriyav", "District": "Kheda", "State": "Gujarat", "Trains passing through": 8 }, "geometry": { "type": "Point", "coordinates": [ 72.921833400000011, 22.6156749 ] } },
{ "type": "Feature", "properties": { "id": 318157831, "name": "Vadod", "railway": "station", "public_transport": "station", "station_code": "VXD", "network": "IR", "internet_access": "no", "Station Code": "VXD", "Station Name": "Vadod", "District": "Anand", "State": "Gujarat", "Trains passing through": 0 }, "geometry": { "type": "Point", "coordinates": [ 73.0083139, 22.514477 ] } },
{ "type": "Feature", "properties": { "id": 318157883, "name": "Adas Road", "railway": "station", "public_transport": "station", "station_code": "ADD", "network": "IR", "internet_access": "no", "Station Code": "ADD", "Station Name": "Adas Road", "District": "Anand", "State": "Gujarat", "Trains passing through": 0 }, "geometry": { "type": "Point", "coordinates": [ 73.0338876, 22.4869052 ] } },
{ "type": "Feature", "properties": { "id": 318158761, "name": "Vasad Junction", "railway": "station", "public_transport": "station", "station_code": "VDA", "network": "IR", "internet_access": "no", "Station Code": "VDA", "Station Name": "Vasad Jn", "District": "Anand", "State": "Gujarat", "Trains passing through": 6 }, "geometry": { "type": "Point", "coordinates": [ 73.0606454, 22.4528694 ] } },
{ "type": "Feature", "properties": { "id": 318159226, "name": "Nandesari", "railway": "station", "public_transport": "station", "station_code": "NDR", "network": "IR", "internet_access": "no", "Station Code": "NDR", "Station Name": "Nandesari", "District": "Anand", "State": "Gujarat", "Trains passing through": 0 }, "geometry": { "type": "Point", "coordinates": [ 73.0949186, 22.4178037 ] } },
{ "type": "Feature", "properties": { "id": 318258387, "name": "Vallabh Vidynagar", "railway": "station", "public_transport": "station", "station_code": "VLYN", "network": "IR", "internet_access": "no", "Station Code": "VLYN", "Station Name": "Vallabh Vdyangr", "District": "Anand", "State": "Gujarat", "Trains passing through": 0 }, "geometry": { "type": "Point", "coordinates": [ 72.9310688, 22.5423493 ] } },
{ "type": "Feature", "properties": { "id": 319330553, "name": "Pilol", "railway": "station", "public_transport": "station", "station_code": "PIO", "network": "IR", "internet_access": "no", "Station Code": "PIO", "Station Name": "Pilol", "District": "Vadodara", "State": "Gujarat", "Trains passing through": 2 }, "geometry": { "type": "Point", "coordinates": [ 73.2098796, 22.4151532 ] } },
{ "type": "Feature", "properties": { "id": 322770856, "name": "Naroda", "railway": "station", "public_transport": "station", "station_code": "NRD", "network": "IR", "internet_access": "no", "Station Code": "NRD", "Station Name": "Naroda", "District": "Ahmadabad", "State": "Gujarat", "Trains passing through": 0 }, "geometry": { "type": "Point", "coordinates": [ 72.6580946, 23.0854097 ] } },
{ "type": "Feature", "properties": { "id": 322983346, "name": "Vastrapur", "railway": "station", "public_transport": "station", "station_code": "VTP", "network": "IR", "internet_access": "no", "Station Code": "VTP", "Station Name": "Vastrapur", "District": "Ahmadabad", "State": "Gujarat", "Trains passing through": 0 }, "geometry": { "type": "Point", "coordinates": [ 72.5174367, 23.0079064 ] } },
{ "type": "Feature", "properties": { "id": 323120091, "name": "Maninagar", "railway": "station", "public_transport": "station", "station_code": "MAN", "network": "IR", "internet_access": "no", "Station Code": "MAN", "Station Name": "Mani Nagar", "District": "Ahmadabad", "State": "Gujarat", "Trains passing through": 36 }, "geometry": { "type": "Point", "coordinates": [ 72.611401300000011, 22.9986596 ] } },
{ "type": "Feature", "properties": { "id": 323189766, "name": "Sabarmati", "railway": "station", "public_transport": "station", "station_code": "SBIB", "network": "IR", "internet_access": "no", "Station Code": "SBIB", "Station Name": "Sabarmati Bg", "District": "Ahmadabad", "State": "Gujarat", "Trains passing through": 40 }, "geometry": { "type": "Point", "coordinates": [ 72.5890677, 23.0770712 ] } },
{ "type": "Feature", "properties": { "id": 334641675, "name": "Kappil", "railway": "station", "public_transport": "station", "station_code": "KFI", "network": "IR", "internet_access": null, "Station Code": "KFI", "Station Name": "Kappil", "District": "Thiruvananthapuram", "State": "Kerala", "Trains passing through": 0 }, "geometry": { "type": "Point", "coordinates": [ 76.6792879, 8.7795558 ] } },
{ "type": "Feature", "properties": { "id": 334652322, "name": "Mayyanad", "railway": "station", "public_transport": "station", "station_code": "MYY", "network": "IR", "internet_access": "no", "Station Code": "MYY", "Station Name": "Mayyanad", "District": "Kollam", "State": "Kerala", "Trains passing through": 6 }, "geometry": { "type": "Point", "coordinates": [ 76.6476808, 8.8380291 ] } },
{ "type": "Feature", "properties": { "id": 335867995, "name": "Settigunta", "railway": "station", "public_transport": "station", "station_code": "SF", "network": "IR", "internet_access": "no", "Station Code": "SF", "Station Name": "Settigunta", "District": "Y.S.R.", "State": "Andhra Pradesh", "Trains passing through": 0 }, "geometry": { "type": "Point", "coordinates": [ 79.3841762, 13.870358 ] } },
{ "type": "Feature", "properties": { "id": 338274462, "name": "Yelahanka Junction", "railway": "station", "public_transport": "station", "station_code": "YNK", "network": "IR", "internet_access": "no", "Station Code": "YNK", "Station Name": "Yelhanka Jn", "District": "Bangalore", "State": "Karnataka", "Trains passing through": 43 }, "geometry": { "type": "Point", "coordinates": [ 77.5918938, 13.1050067 ] } },
{ "type": "Feature", "properties": { "id": 335560058, "name": "Kadakavur", "railway": "station", "public_transport": "station", "station_code": "KVU", "network": "IR", "internet_access": "no", "Station Code": "KVU", "Station Name": "Kadakavur", "District": "Thiruvananthapuram", "State": "Kerala", "Trains passing through": 14 }, "geometry": { "type": "Point", "coordinates": [ 76.76764270000001, 8.6786987 ] } },
{ "type": "Feature", "properties": { "id": 335560073, "name": "Chirayinkeezh", "railway": "station", "public_transport": "station", "station_code": "CRY", "network": "IR", "internet_access": "no", "Station Code": "CRY", "Station Name": "Chirayinkil", "District": "Thiruvananthapuram", "State": "Kerala", "Trains passing through": 14 }, "geometry": { "type": "Point", "coordinates": [ 76.78555510000001, 8.6595556 ] } },
{ "type": "Feature", "properties": { "id": 342121373, "name": "Nagothane", "railway": "station", "public_transport": "station", "station_code": "NGTN", "network": "IR", "internet_access": "no", "Station Code": "NGTN", "Station Name": "Nagothane", "District": "Raigad", "State": "Maharashtra", "Trains passing through": 0 }, "geometry": { "type": "Point", "coordinates": [ 73.1406194, 18.5402418 ] } },
{ "type": "Feature", "properties": { "id": 343304315, "name": "Pune Junction", "railway": "station", "public_transport": "station", "station_code": "PUNE", "network": "IR", "internet_access": "wlan", "Station Code": "PUNE", "Station Name": "Pune Jn", "District": "Pune", "State": "Maharashtra", "Trains passing through": 234 }, "geometry": { "type": "Point", "coordinates": [ 73.8744146, 18.5288773 ] } },
{ "type": "Feature", "properties": { "id": 343319245, "name": "Nature Cure Hospital", "railway": "station", "public_transport": "station", "station_code": "NCHS", "network": "IR", "internet_access": "no", "Station Code": "NCHS", "Station Name": "Nature Cure Hospital", "District": "Hyderabad", "State": "Telangana", "Trains passing through": 0 }, "geometry": { "type": "Point", "coordinates": [ 78.4521487, 17.4456571 ] } },
{ "type": "Feature", "properties": { "id": 343641073, "name": "Begumpet", "railway": "station", "public_transport": "station", "station_code": "BMT", "network": "IR", "internet_access": "no", "Station Code": "BMT", "Station Name": "Begampet", "District": "Hyderabad", "State": "Telangana", "Trains passing through": 46 }, "geometry": { "type": "Point", "coordinates": [ 78.4580969, 17.4386951 ] } },
{ "type": "Feature", "properties": { "id": 344463079, "name": "Chalakudi", "railway": "station", "public_transport": "station", "station_code": "CKI", "network": "IR", "internet_access": "no", "Station Code": "CKI", "Station Name": "Chalakudi", "District": "Thrissur", "State": "Kerala", "Trains passing through": 34 }, "geometry": { "type": "Point", "coordinates": [ 76.321561, 10.3023854 ] } },
{ "type": "Feature", "properties": { "id": 345195351, "name": "Chandigarh Railway Station", "railway": "station", "public_transport": "station", "station_code": "CDG", "network": "IR", "internet_access": "no", "Station Code": "CDG", "Station Name": "Chandigarh", "District": "Chandigarh", "State": "Chandigarh", "Trains passing through": 66 }, "geometry": { "type": "Point", "coordinates": [ 76.8214533, 30.7021622 ] } },
{ "type": "Feature", "properties": { "id": 345195380, "name": "Ghagghar", "railway": "station", "public_transport": "station", "station_code": "GHG", "network": "IR", "internet_access": "no", "Station Code": "GHG", "Station Name": "Ghagghar", "District": "S.A.S. Nagar", "State": "Punjab", "Trains passing through": 0 }, "geometry": { "type": "Point", "coordinates": [ 76.8482707, 30.6102864 ] } },
{ "type": "Feature", "properties": { "id": 345195425, "name": "Dhulkot", "railway": "station", "public_transport": "station", "station_code": "DKT", "network": "IR", "internet_access": "no", "Station Code": "DKT", "Station Name": "Dhulkot", "District": "Ambala", "State": "Haryana", "Trains passing through": 2 }, "geometry": { "type": "Point", "coordinates": [ 76.7877754, 30.3960955 ] } },
{ "type": "Feature", "properties": { "id": 345195453, "name": "Mohri", "railway": "station", "public_transport": "station", "station_code": "MOY", "network": "IR", "internet_access": "no", "Station Code": "MOY", "Station Name": "Mohri", "District": "Ambala", "State": "Haryana", "Trains passing through": 0 }, "geometry": { "type": "Point", "coordinates": [ 76.8504589, 30.2555275 ] } },
{ "type": "Feature", "properties": { "id": 345195476, "name": "Shahabad Markanda", "railway": "station", "public_transport": "station", "station_code": "SHDM", "network": "IR", "internet_access": "no", "Station Code": "SHDM", "Station Name": "Shahbad Marknda", "District": "Kurukshetra", "State": "Haryana", "Trains passing through": 13 }, "geometry": { "type": "Point", "coordinates": [ 76.8616655, 30.1658852 ] } },
{ "type": "Feature", "properties": { "id": 345195481, "name": "Dhola Mazra", "railway": "station", "public_transport": "station", "station_code": "DHMZ", "network": "IR", "internet_access": "no", "Station Code": "DHMZ", "Station Name": "Dhola Mazra", "District": "Kurukshetra", "State": "Haryana", "Trains passing through": 0 }, "geometry": { "type": "Point", "coordinates": [ 76.8538341, 30.1153978 ] } },
{ "type": "Feature", "properties": { "id": 345195495, "name": "Dhirpur", "railway": "station", "public_transport": "station", "station_code": "DPP", "network": "IR", "internet_access": "no", "Station Code": "DPP", "Station Name": "Dhirpur", "District": "Kurukshetra", "State": "Haryana", "Trains passing through": 0 }, "geometry": { "type": "Point", "coordinates": [ 76.8444394, 30.0664157 ] } },
{ "type": "Feature", "properties": { "id": 345195502, "name": "Dhoda Kheri", "railway": "station", "public_transport": "station", "station_code": "DHKR", "network": "IR", "internet_access": "no", "Station Code": "DHKR", "Station Name": "Dhoda Khedi", "District": "Kurukshetra", "State": "Haryana", "Trains passing through": 0 }, "geometry": { "type": "Point", "coordinates": [ 76.84241080000001, 30.0185597 ] } },
{ "type": "Feature", "properties": { "id": 345195515, "name": "Kurukshetra Junction", "railway": "station", "public_transport": "station", "station_code": "KKDE", "network": "IR", "internet_access": "no", "Station Code": "KKDE", "Station Name": "Kurukshetra Jn", "District": "Kurukshetra", "State": "Haryana", "Trains passing through": 56 }, "geometry": { "type": "Point", "coordinates": [ 76.8517108, 29.9698587 ] } },
{ "type": "Feature", "properties": { "id": 345195519, "name": "Amin", "railway": "station", "public_transport": "station", "station_code": "AMIN", "network": "IR", "internet_access": "no", "Station Code": "AMIN", "Station Name": "Amin", "District": "Kurukshetra", "State": "Haryana", "Trains passing through": 0 }, "geometry": { "type": "Point", "coordinates": [ 76.8996025, 29.9046213 ] } },
{ "type": "Feature", "properties": { "id": 345195547, "name": "Nilokheri", "railway": "station", "public_transport": "station", "station_code": "NLKR", "network": "IR", "internet_access": "no", "Station Code": "NLKR", "Station Name": "Nilokheri", "District": "Karnal", "State": "Haryana", "Trains passing through": 8 }, "geometry": { "type": "Point", "coordinates": [ 76.9254714, 29.8319792 ] } },
{ "type": "Feature", "properties": { "id": 345195574, "name": "Bhaini Khurd", "railway": "station", "public_transport": "station", "station_code": "BZK", "network": "IR", "internet_access": "no", "Station Code": "BZK", "Station Name": "Bhaini Khurd", "District": "Karnal", "State": "Haryana", "Trains passing through": 0 }, "geometry": { "type": "Point", "coordinates": [ 76.9555293, 29.7519953 ] } },
{ "type": "Feature", "properties": { "id": 345195615, "name": "Gharaunda", "railway": "station", "public_transport": "station", "station_code": "GRA", "network": "IR", "internet_access": "no", "Station Code": "GRA", "Station Name": "Gharaunda", "District": "Karnal", "State": "Haryana", "Trains passing through": 10 }, "geometry": { "type": "Point", "coordinates": [ 76.9653774, 29.5408768 ] } },
{ "type": "Feature", "properties": { "id": 345195621, "name": "Kohand", "railway": "station", "public_transport": "station", "station_code": "KFU", "network": "IR", "internet_access": "no", "Station Code": "KFU", "Station Name": "Kohand", "District": "Karnal", "State": "Haryana", "Trains passing through": 0 }, "geometry": { "type": "Point", "coordinates": [ 76.9685943, 29.4956582 ] } },
{ "type": "Feature", "properties": { "id": 345195626, "name": "Babarpur", "railway": "station", "public_transport": "station", "station_code": "BBDE", "network": "IR", "internet_access": "no", "Station Code": "BBDE", "Station Name": "Babarpur", "District": "Panipat", "State": "Haryana", "Trains passing through": 0 }, "geometry": { "type": "Point", "coordinates": [ 76.9666194, 29.4499843 ] } },
{ "type": "Feature", "properties": { "id": 345195648, "name": "Diwana", "railway": "station", "public_transport": "station", "station_code": "DWNA", "network": "IR", "internet_access": "no", "Station Code": "DWNA", "Station Name": "Diwana", "District": "Panipat", "State": "Haryana", "Trains passing through": 0 }, "geometry": { "type": "Point", "coordinates": [ 76.9801567, 29.3180709 ] } },
{ "type": "Feature", "properties": { "id": 345195663, "name": "Bhodwal Majri", "railway": "station", "public_transport": "station", "station_code": "BDMJ", "network": "IR", "internet_access": "no", "Station Code": "BDMJ", "Station Name": "Bhodwal Majri", "District": "Panipat", "State": "Haryana", "Trains passing through": 1 }, "geometry": { "type": "Point", "coordinates": [ 77.0084189, 29.1852264 ] } },
{ "type": "Feature", "properties": { "id": 345195671, "name": "Ganaur", "railway": "station", "public_transport": "station", "station_code": "GNU", "network": "IR", "internet_access": "no", "Station Code": "GNU", "Station Name": "Ganaur", "District": "Sonipat", "State": "Haryana", "Trains passing through": 15 }, "geometry": { "type": "Point", "coordinates": [ 77.0110886, 29.1315256 ] } },
{ "type": "Feature", "properties": { "id": 345195701, "name": "Barota", "railway": "station", "public_transport": "station", "station_code": "RDDE", "network": "IR", "internet_access": "no", "Station Code": "RDDE", "Station Name": "Rathdhana", "District": "Sonipat", "State": "Haryana", "Trains passing through": 1 }, "geometry": { "type": "Point", "coordinates": [ 77.0591895, 28.9038916 ] } },
{ "type": "Feature", "properties": { "id": 345195776, "name": "Panipat Junction", "railway": "station", "public_transport": "station", "station_code": "PNP", "network": "IR", "internet_access": "no", "Station Code": "PNP", "Station Name": "Panipat Jn", "District": "Panipat", "State": "Haryana", "Trains passing through": 85 }, "geometry": { "type": "Point", "coordinates": [ 76.964085, 29.3903294 ] } },
{ "type": "Feature", "properties": { "id": 345195782, "name": "Bazida Jatan", "railway": "station", "public_transport": "station", "station_code": "BZJT", "network": "IR", "internet_access": "no", "Station Code": "BZJT", "Station Name": "Bazida Jatan", "District": "Karnal", "State": "Haryana", "Trains passing through": 0 }, "geometry": { "type": "Point", "coordinates": [ 76.9654962, 29.6134124 ] } },
{ "type": "Feature", "properties": { "id": 345195834, "name": "Narela", "railway": "station", "public_transport": "station", "station_code": "NUR", "network": "IR", "internet_access": "no", "Station Code": "NUR", "Station Name": "Narela", "District": "North", "State": "Delhi", "Trains passing through": 12 }, "geometry": { "type": "Point", "coordinates": [ 77.0856631, 28.8464766 ] } },
{ "type": "Feature", "properties": { "id": 345195836, "name": "Sandal Kalan", "railway": "station", "public_transport": "station", "station_code": "SLKN", "network": "IR", "internet_access": "no", "Station Code": "SLKN", "Station Name": "Sandal Kalan", "District": "Sonipat", "State": "Haryana", "Trains passing through": 0 }, "geometry": { "type": "Point", "coordinates": [ 77.0128043, 29.0634081 ] } },
{ "type": "Feature", "properties": { "id": 345195841, "name": "Holambi Kalan", "railway": "station", "public_transport": "station", "station_code": "HUK", "network": "IR", "internet_access": "no", "Station Code": "HUK", "Station Name": "Holambi Kalan", "District": "North West", "State": "Delhi", "Trains passing through": 0 }, "geometry": { "type": "Point", "coordinates": [ 77.1024832, 28.8015786 ] } },
{ "type": "Feature", "properties": { "id": 345199448, "name": "Khera Kalan", "railway": "station", "public_transport": "station", "station_code": "KHKN", "network": "IR", "internet_access": "no", "Station Code": "KHKN", "Station Name": "Khera Kalan", "District": "North West", "State": "Delhi", "Trains passing through": 0 }, "geometry": { "type": "Point", "coordinates": [ 77.1158609, 28.7696903 ] } },
{ "type": "Feature", "properties": { "id": 345234441, "name": "Karol Bagh", "railway": "station", "public_transport": "station", "station_code": null, "network": "Delhi Metro", "internet_access": null, "Station Code": null, "Station Name": null, "District": null, "State": null, "Trains passing through": 0 }, "geometry": { "type": "Point", "coordinates": [ 77.1885235, 28.6440122 ] } },
{ "type": "Feature", "properties": { "id": 345322690, "name": "Chandi Mandir", "railway": "station", "public_transport": "station", "station_code": "CNDM", "network": "IR", "internet_access": "no", "Station Code": "CNDM", "Station Name": "Chandi Mandir", "District": "Panchkula", "State": "Haryana", "Trains passing through": 8 }, "geometry": { "type": "Point", "coordinates": [ 76.8872227, 30.7270873 ] } },
{ "type": "Feature", "properties": { "id": 345332167, "name": "Kalka", "railway": "station", "public_transport": "station", "station_code": "KLK", "network": "IR", "internet_access": "no", "Station Code": "KLK", "Station Name": "Kalka", "District": "Panchkula", "State": "Haryana", "Trains passing through": 18 }, "geometry": { "type": "Point", "coordinates": [ 76.93156470000001, 30.8392295 ] } },
{ "type": "Feature", "properties": { "id": 347138797, "name": "Khar Road", "railway": "station", "public_transport": "station", "station_code": "KHAR", "network": "Mumbai Suburban Railway", "internet_access": "no", "Station Code": "KHAR", "Station Name": "Khar", "District": "Mumbai Suburban", "State": "Maharashtra", "Trains passing through": 0 }, "geometry": { "type": "Point", "coordinates": [ 72.8400412, 19.0682411 ] } },
{ "type": "Feature", "properties": { "id": 347408470, "name": "Khanna", "railway": "station", "public_transport": "station", "station_code": "KNN", "network": "IR", "internet_access": "no", "Station Code": "KNN", "Station Name": "Khanna", "District": "Ludhiana", "State": "Punjab", "Trains passing through": 32 }, "geometry": { "type": "Point", "coordinates": [ 76.223487, 30.708775 ] } },
{ "type": "Feature", "properties": { "id": 347408489, "name": "Rajpura Junction", "railway": "station", "public_transport": "station", "station_code": "RPJ", "network": "IR", "internet_access": "no", "Station Code": "RPJ", "Station Name": "Rajpura Jn", "District": "Patiala", "State": "Punjab", "Trains passing through": 64 }, "geometry": { "type": "Point", "coordinates": [ 76.5936242, 30.4862768 ] } },
{ "type": "Feature", "properties": { "id": 347671501, "name": "Jandiala", "railway": "station", "public_transport": "station", "station_code": "JNL", "network": "IR", "internet_access": "no", "Station Code": "JNL", "Station Name": "Jandiala", "District": "Amritsar", "State": "Punjab", "Trains passing through": 9 }, "geometry": { "type": "Point", "coordinates": [ 75.0568715, 31.5892298 ] } },
{ "type": "Feature", "properties": { "id": 347676531, "name": "Kirti Nagar (Blue Line)", "railway": "station", "public_transport": "station", "station_code": "KNR", "network": "Delhi Metro", "internet_access": null, "Station Code": "KNR", "Station Name": "Kankinara", "District": "North 24 Parganas", "State": "West Bengal", "Trains passing through": 2 }, "geometry": { "type": "Point", "coordinates": [ 77.1506635, 28.655746 ] } },
{ "type": "Feature", "properties": { "id": 347676595, "name": "Shadipur", "railway": "station", "public_transport": "station", "station_code": null, "network": "Delhi Metro", "internet_access": null, "Station Code": null, "Station Name": null, "District": null, "State": null, "Trains passing through": 0 }, "geometry": { "type": "Point", "coordinates": [ 77.1582587, 28.6515829 ] } },
{ "type": "Feature", "properties": { "id": 347676947, "name": "Moti Nagar", "railway": "station", "public_transport": "station", "station_code": null, "network": "Delhi Metro", "internet_access": null, "Station Code": null, "Station Name": null, "District": null, "State": null, "Trains passing through": 0 }, "geometry": { "type": "Point", "coordinates": [ 77.1424288, 28.657859 ] } },
{ "type": "Feature", "properties": { "id": 348031798, "name": "Goraya", "railway": "station", "public_transport": "station", "station_code": "GRY", "network": "IR", "internet_access": "no", "Station Code": "GRY", "Station Name": "Goraya", "District": "Jalandhar", "State": "Punjab", "Trains passing through": 5 }, "geometry": { "type": "Point", "coordinates": [ 75.7741716, 31.1298905 ] } },
{ "type": "Feature", "properties": { "id": 348469810, "name": "Khurdpur", "railway": "station", "public_transport": "station", "station_code": "KUPR", "network": "IR", "internet_access": "no", "Station Code": "KUPR", "Station Name": "Khurdpur", "District": "Jalandhar", "State": "Punjab", "Trains passing through": 1 }, "geometry": { "type": "Point", "coordinates": [ 75.7236871, 31.4256904 ] } },
{ "type": "Feature", "properties": { "id": 348490338, "name": "Tarakeswar", "railway": "station", "public_transport": "station", "station_code": "TAK", "network": "IR", "internet_access": null, "Station Code": "TAK", "Station Name": "Tarakeswar", "District": "Hooghly", "State": "West Bengal", "Trains passing through": 0 }, "geometry": { "type": "Point", "coordinates": [ 88.0142006, 22.8823987 ] } },
{ "type": "Feature", "properties": { "id": 350594661, "name": "Sithouli", "railway": "station", "public_transport": "station", "station_code": "STLI", "network": "IR", "internet_access": "no", "Station Code": "STLI", "Station Name": "Sithouli", "District": "Gwalior", "State": "Madhya Pradesh", "Trains passing through": 0 }, "geometry": { "type": "Point", "coordinates": [ 78.18720230000001, 26.1465401 ] } },
{ "type": "Feature", "properties": { "id": 350598861, "name": "Virangana Lakshmibai Jhansi Junction", "railway": "station", "public_transport": "station", "station_code": "VGLJ", "network": "Indian Railways", "internet_access": "wlan", "Station Code": null, "Station Name": null, "District": null, "State": null, "Trains passing through": 0 }, "geometry": { "type": "Point", "coordinates": [ 78.5534422, 25.44395 ] } },
{ "type": "Feature", "properties": { "id": 353002120, "name": "Kuzhiturai", "railway": "station", "public_transport": "station", "station_code": "KZT", "network": "IR", "internet_access": "no", "Station Code": "KZT", "Station Name": "Kulitthurai", "District": "Kanyakumari", "State": "Tamil Nadu", "Trains passing through": 16 }, "geometry": { "type": "Point", "coordinates": [ 77.2186619, 8.3013061 ] } },
{ "type": "Feature", "properties": { "id": 353002292, "name": "Nagercoil Junction", "railway": "station", "public_transport": "station", "station_code": "NCJ", "network": "IR", "internet_access": "wlan", "Station Code": "NCJ", "Station Name": "Nagercoil Jn", "District": "Kanyakumari", "State": "Tamil Nadu", "Trains passing through": 52 }, "geometry": { "type": "Point", "coordinates": [ 77.4438789, 8.174535 ] } },
{ "type": "Feature", "properties": { "id": 353002340, "name": "Aralvaymozhi", "railway": "station", "public_transport": "station", "station_code": "AAY", "network": "IR", "internet_access": "no", "Station Code": "AAY", "Station Name": "Aralvaymozhi", "District": "Kanyakumari", "State": "Tamil Nadu", "Trains passing through": 4 }, "geometry": { "type": "Point", "coordinates": [ 77.5279284, 8.2483557 ] } },
{ "type": "Feature", "properties": { "id": 353002398, "name": "N. Panakudi", "railway": "station", "public_transport": "station", "station_code": "NPK", "network": "IR", "internet_access": "no", "Station Code": "NPK", "Station Name": "North Panakudi", "District": "Tirunelveli", "State": "Tamil Nadu", "Trains passing through": 2 }, "geometry": { "type": "Point", "coordinates": [ 77.5814273, 8.3146578 ] } },
{ "type": "Feature", "properties": { "id": 353002619, "name": "Nanguneri", "railway": "station", "public_transport": "station", "station_code": "NNN", "network": "IR", "internet_access": "no", "Station Code": "NNN", "Station Name": "Nanguneri", "District": "Tirunelveli", "State": "Tamil Nadu", "Trains passing through": 8 }, "geometry": { "type": "Point", "coordinates": [ 77.6632221, 8.4898391 ] } },
{ "type": "Feature", "properties": { "id": 353052107, "name": "Kadayanallur", "railway": "station", "public_transport": "station", "station_code": "KDNL", "network": "IR", "internet_access": "no", "Station Code": "KDNL", "Station Name": "Kadaynallur", "District": "Tenkasi", "State": "Tamil Nadu", "Trains passing through": 6 }, "geometry": { "type": "Point", "coordinates": [ 77.3629798, 9.0856852 ] } },
{ "type": "Feature", "properties": { "id": 353681335, "name": "Jaisalmer", "railway": "station", "public_transport": "station", "station_code": "JSM", "network": "IR", "internet_access": "wlan", "Station Code": "JSM", "Station Name": "Jaisalmer", "District": "Jaisalmer", "State": "Rajasthan", "Trains passing through": 15 }, "geometry": { "type": "Point", "coordinates": [ 70.926746, 26.9150208 ] } },
{ "type": "Feature", "properties": { "id": 353681375, "name": "Thaiyat Hamira", "railway": "station", "public_transport": "station", "station_code": "THM", "network": "IR", "internet_access": "no", "Station Code": "THM", "Station Name": "Thalyat Hamira", "District": "Jaisalmer", "State": "Rajasthan", "Trains passing through": 0 }, "geometry": { "type": "Point", "coordinates": [ 71.0782972, 26.9932755 ] } },
{ "type": "Feature", "properties": { "id": 353681421, "name": "Jetha Chandan", "railway": "station", "public_transport": "station", "station_code": "JCH", "network": "IR", "internet_access": "no", "Station Code": "JCH", "Station Name": "Jetha Chandan", "District": "Jaisalmer", "State": "Rajasthan", "Trains passing through": 0 }, "geometry": { "type": "Point", "coordinates": [ 71.30654340000001, 27.0000568 ] } },
{ "type": "Feature", "properties": { "id": 353681478, "name": "Odhaniya Chacha", "railway": "station", "public_transport": "station", "station_code": "OCH", "network": "IR", "internet_access": "no", "Station Code": "OCH", "Station Name": "Odhaniya Chacha", "District": "Jaisalmer", "State": "Rajasthan", "Trains passing through": 0 }, "geometry": { "type": "Point", "coordinates": [ 71.723694, 26.9708019 ] } },
{ "type": "Feature", "properties": { "id": 353681517, "name": "Ashapura Gomat", "railway": "station", "public_transport": "station", "station_code": "AQG", "network": "IR", "internet_access": "no", "Station Code": "AQG", "Station Name": "Ashapura Gomat", "District": "Jaisalmer", "State": "Rajasthan", "Trains passing through": 11 }, "geometry": { "type": "Point", "coordinates": [ 71.8930968, 26.9505606 ] } },
{ "type": "Feature", "properties": { "id": 353681575, "name": "Ramdevra", "railway": "station", "public_transport": "station", "station_code": "RDRA", "network": "IR", "internet_access": "no", "Station Code": "RDRA", "Station Name": "Ramdevra", "District": "Jaisalmer", "State": "Rajasthan", "Trains passing through": 15 }, "geometry": { "type": "Point", "coordinates": [ 71.9301472, 27.0070434 ] } },
{ "type": "Feature", "properties": { "id": 353681709, "name": "Dhelana", "railway": "station", "public_transport": "station", "station_code": "DLNA", "network": "IR", "internet_access": "no", "Station Code": "DLNA", "Station Name": "Dhelana", "District": "Jodhpur", "State": "Rajasthan", "Trains passing through": 0 }, "geometry": { "type": "Point", "coordinates": [ 72.6528159, 26.9467707 ] } },
{ "type": "Feature", "properties": { "id": 353681757, "name": "Harlaya", "railway": "station", "public_transport": "station", "station_code": "HRLI", "network": "IR", "internet_access": "no", "Station Code": "HRLI", "Station Name": "Harlaya", "District": "#N/A", "State": "", "Trains passing through": 0 }, "geometry": { "type": "Point", "coordinates": [ 72.7208476, 26.8674124 ] } },
{ "type": "Feature", "properties": { "id": 353681903, "name": "Manaklao", "railway": "station", "public_transport": "station", "station_code": "MLH", "network": "IR", "internet_access": "no", "Station Code": "MLH", "Station Name": "Manaklao", "District": "Jodhpur", "State": "Rajasthan", "Trains passing through": 0 }, "geometry": { "type": "Point", "coordinates": [ 73.0203671, 26.4562279 ] } },
{ "type": "Feature", "properties": { "id": 353853239, "name": "Kolayat", "railway": "station", "public_transport": "station", "station_code": "KLYT", "network": "IR", "internet_access": "no", "Station Code": "KLYT", "Station Name": "Kolayat", "District": "Bikaner", "State": "Rajasthan", "Trains passing through": 6 }, "geometry": { "type": "Point", "coordinates": [ 72.9554371, 27.8362183 ] } },
{ "type": "Feature", "properties": { "id": 353853329, "name": "Lalgarh Junction", "railway": "station", "public_transport": "station", "station_code": "LGH", "network": "IR", "internet_access": "no", "Station Code": "LGH", "Station Name": "Lalgarh Jn", "District": "Bikaner", "State": "Rajasthan", "Trains passing through": 20 }, "geometry": { "type": "Point", "coordinates": [ 73.314535400000011, 28.0434306 ] } },
{ "type": "Feature", "properties": { "id": 353853357, "name": "Bikaner Junction", "railway": "station", "public_transport": "station", "station_code": "BKN", "network": "IR", "internet_access": "no", "Station Code": "BKN", "Station Name": "Bikaner Jn", "District": "Bikaner", "State": "Rajasthan", "Trains passing through": 60 }, "geometry": { "type": "Point", "coordinates": [ 73.3156415, 28.0152443 ] } },
{ "type": "Feature", "properties": { "id": 353853509, "name": "Nokha", "railway": "station", "public_transport": "station", "station_code": "NOK", "network": "IR", "internet_access": "no", "Station Code": "NOK", "Station Name": "Nokha", "District": "Bikaner", "State": "Rajasthan", "Trains passing through": 40 }, "geometry": { "type": "Point", "coordinates": [ 73.4755961, 27.5552713 ] } },
{ "type": "Feature", "properties": { "id": 353853646, "name": "Nagaur", "railway": "station", "public_transport": "station", "station_code": "NGO", "network": "IR", "internet_access": "no", "Station Code": "NGO", "Station Name": "Nagaur", "District": "Nagaur", "State": "Rajasthan", "Trains passing through": 44 }, "geometry": { "type": "Point", "coordinates": [ 73.7237044, 27.2000117 ] } },
{ "type": "Feature", "properties": { "id": 353853671, "name": "Marwar Mundwa", "railway": "station", "public_transport": "station", "station_code": "MDW", "network": "IR", "internet_access": "no", "Station Code": "MDW", "Station Name": "Marwar Mundwa", "District": "Nagaur", "State": "Rajasthan", "Trains passing through": 6 }, "geometry": { "type": "Point", "coordinates": [ 73.815932, 27.0638466 ] } },
{ "type": "Feature", "properties": { "id": 353854806, "name": "کھوکھراپار", "railway": "station", "public_transport": "station", "station_code": null, "network": null, "internet_access": null, "Station Code": null, "Station Name": null, "District": null, "State": null, "Trains passing through": 0 }, "geometry": { "type": "Point", "coordinates": [ 70.195175400000011, 25.6998815 ] } },
{ "type": "Feature", "properties": { "id": 353854808, "name": "Munabao", "railway": "station", "public_transport": "station", "station_code": "MBF", "network": "IR", "internet_access": "no", "Station Code": "MBF", "Station Name": "Munabao", "District": "Barmer", "State": "Rajasthan", "Trains passing through": 2 }, "geometry": { "type": "Point", "coordinates": [ 70.277233700000011, 25.7436798 ] } },
{ "type": "Feature", "properties": { "id": 355629235, "name": "Besroli", "railway": "station", "public_transport": "station", "station_code": "BSRL", "network": "IR", "internet_access": "no", "Station Code": "BSRL", "Station Name": "Besroli", "District": "Nagaur", "State": "Rajasthan", "Trains passing through": 2 }, "geometry": { "type": "Point", "coordinates": [ 74.5612921, 26.9913913 ] } },
{ "type": "Feature", "properties": { "id": 355629303, "name": "Thathana Mithri", "railway": "station", "public_transport": "station", "station_code": "THMR", "network": "IR", "internet_access": "no", "Station Code": "THMR", "Station Name": "Thathana Mithri", "District": "Nagaur", "State": "Rajasthan", "Trains passing through": 4 }, "geometry": { "type": "Point", "coordinates": [ 74.8980661, 27.0551076 ] } },
{ "type": "Feature", "properties": { "id": 355629522, "name": "Saradhna", "railway": "station", "public_transport": "station", "station_code": "SDH", "network": "IR", "internet_access": "no", "Station Code": "SDH", "Station Name": "Saradhna", "District": "Ajmer", "State": "Rajasthan", "Trains passing through": 0 }, "geometry": { "type": "Point", "coordinates": [ 74.5663592, 26.3405491 ] } },
{ "type": "Feature", "properties": { "id": 355629615, "name": "Piplaj", "railway": "station", "public_transport": "station", "station_code": "PPF", "network": "IR", "internet_access": "no", "Station Code": "PPF", "Station Name": "Piplaj", "District": "Ajmer", "State": "Rajasthan", "Trains passing through": 0 }, "geometry": { "type": "Point", "coordinates": [ 74.3807823, 26.1669601 ] } },
{ "type": "Feature", "properties": { "id": 355629622, "name": "Beawar", "railway": "station", "public_transport": "station", "station_code": "BER", "network": "IR", "internet_access": "no", "Station Code": "BER", "Station Name": "Beawar", "District": "Ajmer", "State": "Rajasthan", "Trains passing through": 47 }, "geometry": { "type": "Point", "coordinates": [ 74.3128424, 26.1070559 ] } },
{ "type": "Feature", "properties": { "id": 355700617, "name": "Charbhuja Road", "railway": "station", "public_transport": "station", "station_code": "CBG", "network": "IR", "internet_access": "no", "Station Code": "CBG", "Station Name": "Charbhuja Road", "District": "Rajsamand", "State": "Rajasthan", "Trains passing through": 2 }, "geometry": { "type": "Point", "coordinates": [ 73.9215281, 25.300731 ] } },
{ "type": "Feature", "properties": { "id": 355747516, "name": "Jalor", "railway": "station", "public_transport": "station", "station_code": "JOR", "network": "IR", "internet_access": "no", "Station Code": "JOR", "Station Name": "Jalore", "District": "Jalore", "State": "Rajasthan", "Trains passing through": 10 }, "geometry": { "type": "Point", "coordinates": [ 72.634164500000011, 25.3543102 ] } },
{ "type": "Feature", "properties": { "id": 355747563, "name": "Marwar Bhinmal", "railway": "station", "public_transport": "station", "station_code": "MBNL", "network": "IR", "internet_access": "no", "Station Code": "MBNL", "Station Name": "Marwar Bhinmal", "District": "Jalore", "State": "Rajasthan", "Trains passing through": 10 }, "geometry": { "type": "Point", "coordinates": [ 72.2757664, 25.0010136 ] } },
{ "type": "Feature", "properties": { "id": 355747666, "name": "Bhildi Junction", "railway": "station", "public_transport": "station", "station_code": "BLDI", "network": "IR", "internet_access": "no", "Station Code": "BLDI", "Station Name": "Bhildi", "District": "Banas Kantha", "State": "Gujarat", "Trains passing through": 16 }, "geometry": { "type": "Point", "coordinates": [ 72.0093403, 24.1944244 ] } },
{ "type": "Feature", "properties": { "id": 358800211, "name": "Dharmapuri", "railway": "station", "public_transport": "station", "station_code": "DPJ", "network": "IR", "internet_access": "no", "Station Code": "DPJ", "Station Name": "Dharmapuri", "District": "Dharmapuri", "State": "Tamil Nadu", "Trains passing through": 20 }, "geometry": { "type": "Point", "coordinates": [ 78.154221, 12.1258613 ] } },
{ "type": "Feature", "properties": { "id": 359921216, "name": "Sriganganagar Junction", "railway": "station", "public_transport": "station", "station_code": "SGNR", "network": "IR", "internet_access": "no", "Station Code": "SGNR", "Station Name": "Shri Ganganagar", "District": "Ganganagar", "State": "Rajasthan", "Trains passing through": 37 }, "geometry": { "type": "Point", "coordinates": [ 73.8723448, 29.9319645 ] } },
{ "type": "Feature", "properties": { "id": 359921395, "name": "Sadulshahar", "railway": "station", "public_transport": "station", "station_code": "SDS", "network": "IR", "internet_access": "no", "Station Code": "SDS", "Station Name": "Sadulshahr", "District": "Ganganagar", "State": "Rajasthan", "Trains passing through": 14 }, "geometry": { "type": "Point", "coordinates": [ 74.1721767, 29.9030191 ] } },
{ "type": "Feature", "properties": { "id": 360366007, "name": "Manaksar", "railway": "station", "public_transport": "station", "station_code": "MNSR", "network": "IR", "internet_access": "no", "Station Code": "MNSR", "Station Name": "Manaksar", "District": "Hanumangarh", "State": "Rajasthan", "Trains passing through": 4 }, "geometry": { "type": "Point", "coordinates": [ 74.383674, 29.6798664 ] } },
{ "type": "Feature", "properties": { "id": 360366059, "name": "Hanumangarh Town", "railway": "station", "public_transport": "station", "station_code": "HMO", "network": "IR", "internet_access": "no", "Station Code": "HMO", "Station Name": "Hanumangarh Town", "District": "Hanumangarh", "State": "Rajasthan", "Trains passing through": 6 }, "geometry": { "type": "Point", "coordinates": [ 74.3312387, 29.5744086 ] } },
{ "type": "Feature", "properties": { "id": 360366353, "name": "Churu Junction", "railway": "station", "public_transport": "station", "station_code": "CUR", "network": "IR", "internet_access": "no", "Station Code": "CUR", "Station Name": "Churu", "District": "Churu", "State": "Rajasthan", "Trains passing through": 30 }, "geometry": { "type": "Point", "coordinates": [ 74.9664018, 28.2888645 ] } },
{ "type": "Feature", "properties": { "id": 360366732, "name": "Napasar", "railway": "station", "public_transport": "station", "station_code": "NPS", "network": "IR", "internet_access": "no", "Station Code": "NPS", "Station Name": "Napasar", "District": "Bikaner", "State": "Rajasthan", "Trains passing through": 6 }, "geometry": { "type": "Point", "coordinates": [ 73.5637013, 27.9810152 ] } },
{ "type": "Feature", "properties": { "id": 360367331, "name": "Suratgarh Junction", "railway": "station", "public_transport": "station", "station_code": "SOG", "network": "IR", "internet_access": "no", "Station Code": "SOG", "Station Name": "Suratgarh Jn", "District": "Ganganagar", "State": "Rajasthan", "Trains passing through": 33 }, "geometry": { "type": "Point", "coordinates": [ 73.907064, 29.3233801 ] } },
{ "type": "Feature", "properties": { "id": 360586731, "name": "Loharu Junction", "railway": "station", "public_transport": "station", "station_code": "LHU", "network": "IR", "internet_access": "no", "Station Code": "LHU", "Station Name": "Loharu", "District": "Bhiwani", "State": "Haryana", "Trains passing through": 15 }, "geometry": { "type": "Point", "coordinates": [ 75.803209, 28.4271303 ] } },
{ "type": "Feature", "properties": { "id": 360619312, "name": "Jhilo", "railway": "station", "public_transport": "station", "station_code": "JLLO", "network": "IR", "internet_access": "no", "Station Code": "JLLO", "Station Name": "Jhilo", "District": "Sikar", "State": "Rajasthan", "Trains passing through": 0 }, "geometry": { "type": "Point", "coordinates": [ 75.8850984, 27.848368 ] } },
{ "type": "Feature", "properties": { "id": 360619343, "name": "Narnaul", "railway": "station", "public_transport": "station", "station_code": "NNL", "network": "IR", "internet_access": "no", "Station Code": "NNL", "Station Name": "Narnaul", "District": "Mahendragarh", "State": "Haryana", "Trains passing through": 8 }, "geometry": { "type": "Point", "coordinates": [ 76.1232728, 28.0447722 ] } },
{ "type": "Feature", "properties": { "id": 360619472, "name": "Jaswantgarh", "railway": "station", "public_transport": "station", "station_code": "JSH", "network": "IR", "internet_access": "no", "Station Code": "JSH", "Station Name": "Jaswantgarh", "District": "Nagaur", "State": "Rajasthan", "Trains passing through": 1 }, "geometry": { "type": "Point", "coordinates": [ 74.44290190000001, 27.6676342 ] } },
{ "type": "Feature", "properties": { "id": 360619620, "name": "Bidiyad", "railway": "station", "public_transport": "station", "station_code": "BIDD", "network": "IR", "internet_access": "no", "Station Code": "BIDD", "Station Name": "Bidiyad", "District": "Nagaur", "State": "Rajasthan", "Trains passing through": 2 }, "geometry": { "type": "Point", "coordinates": [ 74.7037141, 26.9809136 ] } },
{ "type": "Feature", "properties": { "id": 360650988, "name": "Gulabpura", "railway": "station", "public_transport": "station", "station_code": "GBP", "network": "IR", "internet_access": "no", "Station Code": "GBP", "Station Name": "Gulabpura", "District": "Bhilwara", "State": "Rajasthan", "Trains passing through": 2 }, "geometry": { "type": "Point", "coordinates": [ 74.6555833, 25.9025321 ] } },
{ "type": "Feature", "properties": { "id": 367556529, "name": "Pugalur", "railway": "station", "public_transport": "station", "station_code": "PGR", "network": "IR", "internet_access": "no", "Station Code": "PGR", "Station Name": "Pugalur", "District": "Karur", "State": "Tamil Nadu", "Trains passing through": 12 }, "geometry": { "type": "Point", "coordinates": [ 77.9916143, 11.0514132 ] } },
{ "type": "Feature", "properties": { "id": 367556637, "name": "Karur Junction", "railway": "station", "public_transport": "station", "station_code": "KRR", "network": "IR", "internet_access": "wlan", "Station Code": "KRR", "Station Name": "Karur", "District": "Karur", "State": "Tamil Nadu", "Trains passing through": 59 }, "geometry": { "type": "Point", "coordinates": [ 78.0849562, 10.9658076 ] } },
{ "type": "Feature", "properties": { "id": 367612325, "name": "Palayam.I", "railway": "station", "public_transport": "station", "station_code": "PALM", "network": "IR", "internet_access": "no", "Station Code": "PALM", "Station Name": "Palaiyam", "District": "Dindigul", "State": "Tamil Nadu", "Trains passing through": 2 }, "geometry": { "type": "Point", "coordinates": [ 78.1292088, 10.7188161 ] } },
{ "type": "Feature", "properties": { "id": 367666445, "name": "Omalur Junction", "railway": "station", "public_transport": "station", "station_code": "OML", "network": "IR", "internet_access": "no", "Station Code": "OML", "Station Name": "Omalur", "District": "Salem", "State": "Tamil Nadu", "Trains passing through": 2 }, "geometry": { "type": "Point", "coordinates": [ 78.0449299, 11.7382934 ] } },
{ "type": "Feature", "properties": { "id": 386483233, "name": "Chikhale", "railway": "station", "public_transport": "station", "station_code": "CKHS", "network": "IR", "internet_access": "no", "Station Code": "CKHS", "Station Name": "Chikhale", "District": "Raigad", "State": "Maharashtra", "Trains passing through": 2 }, "geometry": { "type": "Point", "coordinates": [ 73.151941, 18.9737547 ] } },
{ "type": "Feature", "properties": { "id": 389475236, "name": "Thondebhavi", "railway": "station", "public_transport": "station", "station_code": "TDV", "network": "IR", "internet_access": "no", "Station Code": "TDV", "Station Name": "Thondebhavi", "District": "Chikkaballapura", "State": "Karnataka", "Trains passing through": 0 }, "geometry": { "type": "Point", "coordinates": [ 77.5149549, 13.503993 ] } },
{ "type": "Feature", "properties": { "id": 389475284, "name": "Devarapalli", "railway": "station", "public_transport": "station", "station_code": "DPE", "network": "IR", "internet_access": "no", "Station Code": "DPE", "Station Name": "Devarapalle", "District": "Anantapur", "State": "Andhra Pradesh", "Trains passing through": 0 }, "geometry": { "type": "Point", "coordinates": [ 77.5119477, 13.7232336 ] } },
{ "type": "Feature", "properties": { "id": 389475324, "name": "Malugur", "railway": "station", "public_transport": "station", "station_code": "MLU", "network": "IR", "internet_access": "no", "Station Code": "MLU", "Station Name": "Malugur", "District": "Anantapur", "State": "Andhra Pradesh", "Trains passing through": 0 }, "geometry": { "type": "Point", "coordinates": [ 77.54166450000001, 13.8917927 ] } },
{ "type": "Feature", "properties": { "id": 389475413, "name": "Hirehalli", "railway": "station", "public_transport": "station", "station_code": "HHL", "network": "IR", "internet_access": "no", "Station Code": "HHL", "Station Name": "Hirehali", "District": "Tumakuru", "State": "Karnataka", "Trains passing through": 0 }, "geometry": { "type": "Point", "coordinates": [ 77.1887827, 13.2806649 ] } },
{ "type": "Feature", "properties": { "id": 389475419, "name": "Kyatsandra", "railway": "station", "public_transport": "station", "station_code": "KIAT", "network": "IR", "internet_access": "no", "Station Code": "KIAT", "Station Name": "Kyatsandra", "District": "Tumakuru", "State": "Karnataka", "Trains passing through": 0 }, "geometry": { "type": "Point", "coordinates": [ 77.147748, 13.3156102 ] } },
{ "type": "Feature", "properties": { "id": 391345820, "name": "Bardoli", "railway": "station", "public_transport": "station", "station_code": "BIY", "network": "IR", "internet_access": "no", "Station Code": "BIY", "Station Name": "Bardoli", "District": "Surat", "State": "Gujarat", "Trains passing through": 4 }, "geometry": { "type": "Point", "coordinates": [ 73.1053896, 21.1338291 ] } },
{ "type": "Feature", "properties": { "id": 414782961, "name": "Surat", "railway": "station", "public_transport": "station", "station_code": "ST", "network": "IR", "internet_access": "no", "Station Code": "ST", "Station Name": "Surat", "District": "Surat", "State": "Gujarat", "Trains passing through": 313 }, "geometry": { "type": "Point", "coordinates": [ 72.8407427, 21.2050293 ] } },
{ "type": "Feature", "properties": { "id": 414849419, "name": "Madhi", "railway": "station", "public_transport": "station", "station_code": "MID", "network": "IR", "internet_access": "no", "Station Code": "MID", "Station Name": "Madhi", "District": "Surat", "State": "Gujarat", "Trains passing through": 2 }, "geometry": { "type": "Point", "coordinates": [ 73.242402500000011, 21.1457123 ] } },
{ "type": "Feature", "properties": { "id": 431201162, "name": "Parassala", "railway": "station", "public_transport": "station", "station_code": "PASA", "network": "IR", "internet_access": null, "Station Code": "PASA", "Station Name": "Parashshala", "District": "Thiruvananthapuram", "State": "Kerala", "Trains passing through": 10 }, "geometry": { "type": "Point", "coordinates": [ 77.165665, 8.3397236 ] } },
{ "type": "Feature", "properties": { "id": 443807288, "name": "Banaswadi", "railway": "station", "public_transport": "station", "station_code": "BAND", "network": "IR", "internet_access": "no", "Station Code": "BAND", "Station Name": "Banaswadi", "District": "Bangalore", "State": "Karnataka", "Trains passing through": 41 }, "geometry": { "type": "Point", "coordinates": [ 77.6281321, 13.0058357 ] } },
{ "type": "Feature", "properties": { "id": 443811552, "name": "Channasandra", "railway": "station", "public_transport": "station", "station_code": "CSDR", "network": "IR", "internet_access": "no", "Station Code": "CSDR", "Station Name": "Channasandra", "District": "Bangalore", "State": "Karnataka", "Trains passing through": 0 }, "geometry": { "type": "Point", "coordinates": [ 77.6628136, 13.0118566 ] } },
{ "type": "Feature", "properties": { "id": 447758220, "name": "Ludhiana Junction", "railway": "station", "public_transport": "station", "station_code": "LDH", "network": "IR", "internet_access": "no", "Station Code": "LDH", "Station Name": "Ludhiana Jn", "District": "Ludhiana", "State": "Punjab", "Trains passing through": 205 }, "geometry": { "type": "Point", "coordinates": [ 75.84937570000001, 30.9122517 ] } },
{ "type": "Feature", "properties": { "id": 448146952, "name": "Nandol Dahegam", "railway": "station", "public_transport": "station", "station_code": "NHM", "network": "IR", "internet_access": "no", "Station Code": "NHM", "Station Name": "Nandol Dehegam", "District": "Gandhinagar", "State": "Gujarat", "Trains passing through": 0 }, "geometry": { "type": "Point", "coordinates": [ 72.8161565, 23.1734296 ] } },
{ "type": "Feature", "properties": { "id": 468732267, "name": "Kosli", "railway": "station", "public_transport": "station", "station_code": "KSI", "network": "IR", "internet_access": "no", "Station Code": "KSI", "Station Name": "Kosli", "District": "Rewari", "State": "Haryana", "Trains passing through": 2 }, "geometry": { "type": "Point", "coordinates": [ 76.4654844, 28.4114849 ] } },
{ "type": "Feature", "properties": { "id": 477127497, "name": "Jalandhar Cantonment Junction", "railway": "station", "public_transport": "station", "station_code": "JRC", "network": "IR", "internet_access": "no", "Station Code": "JRC", "Station Name": "Jalandhar Cant", "District": "Jalandhar", "State": "Punjab", "Trains passing through": 113 }, "geometry": { "type": "Point", "coordinates": [ 75.631199200000012, 31.3073313 ] } },
{ "type": "Feature", "properties": { "id": 506280911, "name": "Malavli", "railway": "station", "public_transport": "station", "station_code": "MVL", "network": "IR", "internet_access": "no", "Station Code": "MVL", "Station Name": "Malavli", "District": "Pune", "State": "Maharashtra", "Trains passing through": 0 }, "geometry": { "type": "Point", "coordinates": [ 73.4801637, 18.7442145 ] } },
{ "type": "Feature", "properties": { "id": 506820143, "name": "Chiplun", "railway": "station", "public_transport": "station", "station_code": "CHI", "network": "IR", "internet_access": "no", "Station Code": "CHI", "Station Name": "Chiplun", "District": "Ratnagiri", "State": "Maharashtra", "Trains passing through": 84 }, "geometry": { "type": "Point", "coordinates": [ 73.522233, 17.5423529 ] } },
{ "type": "Feature", "properties": { "id": 506820192, "name": "Khed", "railway": "station", "public_transport": "station", "station_code": "KHED", "network": "IR", "internet_access": "no", "Station Code": "KHED", "Station Name": "Khed", "District": "Ratnagiri", "State": "Maharashtra", "Trains passing through": 57 }, "geometry": { "type": "Point", "coordinates": [ 73.4106638, 17.7125696 ] } },
{ "type": "Feature", "properties": { "id": 506820481, "name": "Apta", "railway": "station", "public_transport": "station", "station_code": "APTA", "network": "IR", "internet_access": "no", "Station Code": "APTA", "Station Name": "Apta", "District": "Raigad", "State": "Maharashtra", "Trains passing through": 0 }, "geometry": { "type": "Point", "coordinates": [ 73.15329890000001, 18.8637081 ] } },
{ "type": "Feature", "properties": { "id": 520485698, "name": "Kanwalpura", "railway": "station", "public_transport": "station", "station_code": "KIW", "network": "IR", "internet_access": "no", "Station Code": "KIW", "Station Name": "Kanwalpura", "District": "Kota", "State": "Rajasthan", "Trains passing through": 2 }, "geometry": { "type": "Point", "coordinates": [ 75.9830709, 24.7807321 ] } },
{ "type": "Feature", "properties": { "id": 521573847, "name": "Bhawani Mandi", "railway": "station", "public_transport": "station", "station_code": "BWM", "network": "IR", "internet_access": "no", "Station Code": "BWM", "Station Name": "Bhawani Mandi", "District": "Jhalawar", "State": "Rajasthan", "Trains passing through": 45 }, "geometry": { "type": "Point", "coordinates": [ 75.83028370000001, 24.4192876 ] } },